{
  "type": "FeatureCollection",
  "features": [
    {
      "type": "Feature",
      "geometry": {
        "type": "Point",
        "coordinates": [
          -64.95,
          -33.16667
        ]
      },
      "properties": {
        "name": "Achiras"
      }
    },
    {
      "type": "Feature",
      "geometry": {
        "type": "Point",
        "coordinates": [
          71.8,
          32.1
        ]
      },
      "properties": {
        "name": "Adhi Kot"
      }
    },
    {
      "type": "Feature",
      "geometry": {
        "type": "Point",
        "coordinates": [
          95.16667,
          44.83333
        ]
      },
      "properties": {
        "name": "Adzhi-Bogdo (stone)"
      }
    },
    {
      "type": "Feature",
      "geometry": {
        "type": "Point",
        "coordinates": [
          -65.23333,
          -31.6
        ]
      },
      "properties": {
        "name": "Aguada"
      }
    },
    {
      "type": "Feature",
      "geometry": {
        "type": "Point",
        "coordinates": [
          -64.55,
          -30.86667
        ]
      },
      "properties": {
        "name": "Aguila Blanca"
      }
    },
    {
      "type": "Feature",
      "geometry": {
        "type": "Point",
        "coordinates": [
          8.38333,
          19.08333
        ]
      },
      "properties": {
        "name": "A\u00efr"
      }
    },
    {
      "type": "Feature",
      "geometry": {
        "type": "Point",
        "coordinates": [
          35.05,
          29.51667
        ]
      },
      "properties": {
        "name": "Akaba"
      }
    },
    {
      "type": "Feature",
      "geometry": {
        "type": "Point",
        "coordinates": [
          22.66667,
          2
        ]
      },
      "properties": {
        "name": "Alberta"
      }
    },
    {
      "type": "Feature",
      "geometry": {
        "type": "Point",
        "coordinates": [
          76.86667,
          20.88333
        ]
      },
      "properties": {
        "name": "Andura"
      }
    },
    {
      "type": "Feature",
      "geometry": {
        "type": "Point",
        "coordinates": [
          39.71667,
          9.53333
        ]
      },
      "properties": {
        "name": "Ankober"
      }
    },
    {
      "type": "Feature",
      "geometry": {
        "type": "Point",
        "coordinates": [
          -2.71667,
          53.58333
        ]
      },
      "properties": {
        "name": "Appley Bridge"
      }
    },
    {
      "type": "Feature",
      "geometry": {
        "type": "Point",
        "coordinates": [
          -94.3,
          38.5
        ]
      },
      "properties": {
        "name": "Archie"
      }
    },
    {
      "type": "Feature",
      "geometry": {
        "type": "Point",
        "coordinates": [
          -60.66667,
          -31.41667
        ]
      },
      "properties": {
        "name": "Arroyo Aguiar"
      }
    },
    {
      "type": "Feature",
      "geometry": {
        "type": "Point",
        "coordinates": [
          0.3,
          52.05
        ]
      },
      "properties": {
        "name": "Ashdon"
      }
    },
    {
      "type": "Feature",
      "geometry": {
        "type": "Point",
        "coordinates": [
          80.625,
          25.25417
        ]
      },
      "properties": {
        "name": "Atarra"
      }
    },
    {
      "type": "Feature",
      "geometry": {
        "type": "Point",
        "coordinates": [
          -87,
          34.75
        ]
      },
      "properties": {
        "name": "Athens"
      }
    },
    {
      "type": "Feature",
      "geometry": {
        "type": "Point",
        "coordinates": [
          -96.15,
          34.31667
        ]
      },
      "properties": {
        "name": "Atoka"
      }
    },
    {
      "type": "Feature",
      "geometry": {
        "type": "Point",
        "coordinates": [
          13.5,
          46
        ]
      },
      "properties": {
        "name": "Avce"
      }
    },
    {
      "type": "Feature",
      "geometry": {
        "type": "Point",
        "coordinates": [
          -108,
          36.8
        ]
      },
      "properties": {
        "name": "Aztec"
      }
    },
    {
      "type": "Feature",
      "geometry": {
        "type": "Point",
        "coordinates": [
          78.5,
          28.48333
        ]
      },
      "properties": {
        "name": "Bahjoi"
      }
    },
    {
      "type": "Feature",
      "geometry": {
        "type": "Point",
        "coordinates": [
          -82.48333,
          35.96667
        ]
      },
      "properties": {
        "name": "Bald Mountain"
      }
    },
    {
      "type": "Feature",
      "geometry": {
        "type": "Point",
        "coordinates": [
          -88.66667,
          34.5
        ]
      },
      "properties": {
        "name": "Baldwyn"
      }
    },
    {
      "type": "Feature",
      "geometry": {
        "type": "Point",
        "coordinates": [
          16.38333,
          5.38333
        ]
      },
      "properties": {
        "name": "Bali"
      }
    },
    {
      "type": "Feature",
      "geometry": {
        "type": "Point",
        "coordinates": [
          78.2,
          30.4
        ]
      },
      "properties": {
        "name": "Banswal"
      }
    },
    {
      "type": "Feature",
      "geometry": {
        "type": "Point",
        "coordinates": [
          106,
          -6.33333
        ]
      },
      "properties": {
        "name": "Banten"
      }
    },
    {
      "type": "Feature",
      "geometry": {
        "type": "Point",
        "coordinates": [
          84.08333,
          52.73333
        ]
      },
      "properties": {
        "name": "Barnaul"
      }
    },
    {
      "type": "Feature",
      "geometry": {
        "type": "Point",
        "coordinates": [
          76.8,
          31.61667
        ]
      },
      "properties": {
        "name": "Baroti"
      }
    },
    {
      "type": "Feature",
      "geometry": {
        "type": "Point",
        "coordinates": [
          -83.75,
          38.25
        ]
      },
      "properties": {
        "name": "Bath Furnace"
      }
    },
    {
      "type": "Feature",
      "geometry": {
        "type": "Point",
        "coordinates": [
          -93.5,
          36.75
        ]
      },
      "properties": {
        "name": "Baxter"
      }
    },
    {
      "type": "Feature",
      "geometry": {
        "type": "Point",
        "coordinates": [
          -101.2,
          39.8
        ]
      },
      "properties": {
        "name": "Beardsley"
      }
    },
    {
      "type": "Feature",
      "geometry": {
        "type": "Point",
        "coordinates": [
          -4.1,
          53.01667
        ]
      },
      "properties": {
        "name": "Beddgelert"
      }
    },
    {
      "type": "Feature",
      "geometry": {
        "type": "Point",
        "coordinates": [
          -64.86667,
          -32.33333
        ]
      },
      "properties": {
        "name": "Belville"
      }
    },
    {
      "type": "Feature",
      "geometry": {
        "type": "Point",
        "coordinates": [
          -89.15,
          39.08333
        ]
      },
      "properties": {
        "name": "Benld"
      }
    },
    {
      "type": "Feature",
      "geometry": {
        "type": "Point",
        "coordinates": [
          28.41667,
          -26.16667
        ]
      },
      "properties": {
        "name": "Benoni"
      }
    },
    {
      "type": "Feature",
      "geometry": {
        "type": "Point",
        "coordinates": [
          -67.55,
          45.95
        ]
      },
      "properties": {
        "name": "Benton"
      }
    },
    {
      "type": "Feature",
      "geometry": {
        "type": "Point",
        "coordinates": [
          -3.65,
          11.65
        ]
      },
      "properties": {
        "name": "B\u00e9r\u00e9ba"
      }
    },
    {
      "type": "Feature",
      "geometry": {
        "type": "Point",
        "coordinates": [
          35.5,
          33.88333
        ]
      },
      "properties": {
        "name": "Beyrout"
      }
    },
    {
      "type": "Feature",
      "geometry": {
        "type": "Point",
        "coordinates": [
          90.65,
          22.68333
        ]
      },
      "properties": {
        "name": "Bhola"
      }
    },
    {
      "type": "Feature",
      "geometry": {
        "type": "Point",
        "coordinates": [
          86.9,
          22.08333
        ]
      },
      "properties": {
        "name": "Bholghati"
      }
    },
    {
      "type": "Feature",
      "geometry": {
        "type": "Point",
        "coordinates": [
          5.3,
          13.76667
        ]
      },
      "properties": {
        "name": "Birni N'konni"
      }
    },
    {
      "type": "Feature",
      "geometry": {
        "type": "Point",
        "coordinates": [
          -78.08333,
          40.91667
        ]
      },
      "properties": {
        "name": "Black Moshannan Park"
      }
    },
    {
      "type": "Feature",
      "geometry": {
        "type": "Point",
        "coordinates": [
          -97.33333,
          36.83333
        ]
      },
      "properties": {
        "name": "Blackwell"
      }
    },
    {
      "type": "Feature",
      "geometry": {
        "type": "Point",
        "coordinates": [
          -98.83333,
          31.83333
        ]
      },
      "properties": {
        "name": "Blanket"
      }
    },
    {
      "type": "Feature",
      "geometry": {
        "type": "Point",
        "coordinates": [
          -89.00417,
          40.48
        ]
      },
      "properties": {
        "name": "Bloomington"
      }
    },
    {
      "type": "Feature",
      "geometry": {
        "type": "Point",
        "coordinates": [
          131.63333,
          44.55
        ]
      },
      "properties": {
        "name": "Boguslavka"
      }
    },
    {
      "type": "Feature",
      "geometry": {
        "type": "Point",
        "coordinates": [
          52.48333,
          54.23333
        ]
      },
      "properties": {
        "name": "Boriskino"
      }
    },
    {
      "type": "Feature",
      "geometry": {
        "type": "Point",
        "coordinates": [
          59.31667,
          52.13333
        ]
      },
      "properties": {
        "name": "Brient"
      }
    },
    {
      "type": "Feature",
      "geometry": {
        "type": "Point",
        "coordinates": [
          9.58333,
          10.01667
        ]
      },
      "properties": {
        "name": "Bununu"
      }
    },
    {
      "type": "Feature",
      "geometry": {
        "type": "Point",
        "coordinates": [
          48,
          5
        ]
      },
      "properties": {
        "name": "Bur-Gheluai"
      }
    },
    {
      "type": "Feature",
      "geometry": {
        "type": "Point",
        "coordinates": [
          29.23333,
          40.2
        ]
      },
      "properties": {
        "name": "Bursa"
      }
    },
    {
      "type": "Feature",
      "geometry": {
        "type": "Point",
        "coordinates": [
          20.33333,
          43.83889
        ]
      },
      "properties": {
        "name": "Cacak"
      }
    },
    {
      "type": "Feature",
      "geometry": {
        "type": "Point",
        "coordinates": [
          122.33333,
          11.75
        ]
      },
      "properties": {
        "name": "Calivo"
      }
    },
    {
      "type": "Feature",
      "geometry": {
        "type": "Point",
        "coordinates": [
          -64.55,
          -30.88333
        ]
      },
      "properties": {
        "name": "Capilla del Monte"
      }
    },
    {
      "type": "Feature",
      "geometry": {
        "type": "Point",
        "coordinates": [
          27,
          38.5
        ]
      },
      "properties": {
        "name": "Caratash"
      }
    },
    {
      "type": "Feature",
      "geometry": {
        "type": "Point",
        "coordinates": [
          83.48333,
          25.85
        ]
      },
      "properties": {
        "name": "Chainpur"
      }
    },
    {
      "type": "Feature",
      "geometry": {
        "type": "Point",
        "coordinates": [
          -58.05,
          -30.78333
        ]
      },
      "properties": {
        "name": "Chajari"
      }
    },
    {
      "type": "Feature",
      "geometry": {
        "type": "Point",
        "coordinates": [
          -7.46667,
          41.93333
        ]
      },
      "properties": {
        "name": "Chaves"
      }
    },
    {
      "type": "Feature",
      "geometry": {
        "type": "Point",
        "coordinates": [
          -81.88333,
          35.03333
        ]
      },
      "properties": {
        "name": "Cherokee Springs"
      }
    },
    {
      "type": "Feature",
      "geometry": {
        "type": "Point",
        "coordinates": [
          6.81667,
          46.55
        ]
      },
      "properties": {
        "name": "Chervettaz"
      }
    },
    {
      "type": "Feature",
      "geometry": {
        "type": "Point",
        "coordinates": [
          34,
          50.83333
        ]
      },
      "properties": {
        "name": "Chervony Kut"
      }
    },
    {
      "type": "Feature",
      "geometry": {
        "type": "Point",
        "coordinates": [
          -79.73333,
          40.93333
        ]
      },
      "properties": {
        "name": "Chicora"
      }
    },
    {
      "type": "Feature",
      "geometry": {
        "type": "Point",
        "coordinates": [
          -90.28333,
          44.9
        ]
      },
      "properties": {
        "name": "Colby (Wisconsin)"
      }
    },
    {
      "type": "Feature",
      "geometry": {
        "type": "Point",
        "coordinates": [
          76.26667,
          10.2
        ]
      },
      "properties": {
        "name": "Cranganore"
      }
    },
    {
      "type": "Feature",
      "geometry": {
        "type": "Point",
        "coordinates": [
          -97.58333,
          35.95
        ]
      },
      "properties": {
        "name": "Crescent"
      }
    },
    {
      "type": "Feature",
      "geometry": {
        "type": "Point",
        "coordinates": [
          -6.21667,
          54.61667
        ]
      },
      "properties": {
        "name": "Crumlin"
      }
    },
    {
      "type": "Feature",
      "geometry": {
        "type": "Point",
        "coordinates": [
          -84.35,
          36.83333
        ]
      },
      "properties": {
        "name": "Cumberland Falls"
      }
    },
    {
      "type": "Feature",
      "geometry": {
        "type": "Point",
        "coordinates": [
          84.76667,
          51.46667
        ]
      },
      "properties": {
        "name": "Demina"
      }
    },
    {
      "type": "Feature",
      "geometry": {
        "type": "Point",
        "coordinates": [
          18.56667,
          -33.75
        ]
      },
      "properties": {
        "name": "Diep River"
      }
    },
    {
      "type": "Feature",
      "geometry": {
        "type": "Point",
        "coordinates": [
          90.33333,
          23.5
        ]
      },
      "properties": {
        "name": "Dokachi"
      }
    },
    {
      "type": "Feature",
      "geometry": {
        "type": "Point",
        "coordinates": [
          29,
          40
        ]
      },
      "properties": {
        "name": "Domanitch"
      }
    },
    {
      "type": "Feature",
      "geometry": {
        "type": "Point",
        "coordinates": [
          -6.3,
          32.33333
        ]
      },
      "properties": {
        "name": "Douar Mghila"
      }
    },
    {
      "type": "Feature",
      "geometry": {
        "type": "Point",
        "coordinates": [
          -82.26,
          42.52
        ]
      },
      "properties": {
        "name": "Dresden (Ontario)"
      }
    },
    {
      "type": "Feature",
      "geometry": {
        "type": "Point",
        "coordinates": [
          127.26667,
          33.43333
        ]
      },
      "properties": {
        "name": "Duwun"
      }
    },
    {
      "type": "Feature",
      "geometry": {
        "type": "Point",
        "coordinates": [
          151,
          -3
        ]
      },
      "properties": {
        "name": "Dyarrl Island"
      }
    },
    {
      "type": "Feature",
      "geometry": {
        "type": "Point",
        "coordinates": [
          -96.47167,
          40.78167
        ]
      },
      "properties": {
        "name": "Eagle"
      }
    },
    {
      "type": "Feature",
      "geometry": {
        "type": "Point",
        "coordinates": [
          13,
          56.03333
        ]
      },
      "properties": {
        "name": "Ekeby"
      }
    },
    {
      "type": "Feature",
      "geometry": {
        "type": "Point",
        "coordinates": [
          78.78333,
          28.26667
        ]
      },
      "properties": {
        "name": "Ekh Khera"
      }
    },
    {
      "type": "Feature",
      "geometry": {
        "type": "Point",
        "coordinates": [
          4,
          51.75
        ]
      },
      "properties": {
        "name": "Ellemeet"
      }
    },
    {
      "type": "Feature",
      "geometry": {
        "type": "Point",
        "coordinates": [
          81.89167,
          19.03333
        ]
      },
      "properties": {
        "name": "Erakot"
      }
    },
    {
      "type": "Feature",
      "geometry": {
        "type": "Point",
        "coordinates": [
          44.5,
          40.3
        ]
      },
      "properties": {
        "name": "Erevan"
      }
    },
    {
      "type": "Feature",
      "geometry": {
        "type": "Point",
        "coordinates": [
          -77.53333,
          35.55
        ]
      },
      "properties": {
        "name": "Farmville"
      }
    },
    {
      "type": "Feature",
      "geometry": {
        "type": "Point",
        "coordinates": [
          -94.16667,
          36.05
        ]
      },
      "properties": {
        "name": "Fayetteville"
      }
    },
    {
      "type": "Feature",
      "geometry": {
        "type": "Point",
        "coordinates": [
          116.75,
          34.6
        ]
      },
      "properties": {
        "name": "Fenghsien-Ku"
      }
    },
    {
      "type": "Feature",
      "geometry": {
        "type": "Point",
        "coordinates": [
          -97.76667,
          30.83333
        ]
      },
      "properties": {
        "name": "Florence"
      }
    },
    {
      "type": "Feature",
      "geometry": {
        "type": "Point",
        "coordinates": [
          146.85833,
          -33.35
        ]
      },
      "properties": {
        "name": "Forest Vale"
      }
    },
    {
      "type": "Feature",
      "geometry": {
        "type": "Point",
        "coordinates": [
          -78.08333,
          36.78333
        ]
      },
      "properties": {
        "name": "Forksville"
      }
    },
    {
      "type": "Feature",
      "geometry": {
        "type": "Point",
        "coordinates": [
          7,
          28.25
        ]
      },
      "properties": {
        "name": "Fort Flatters"
      }
    },
    {
      "type": "Feature",
      "geometry": {
        "type": "Point",
        "coordinates": [
          113.56694,
          31.47556
        ]
      },
      "properties": {
        "name": "Fuhe"
      }
    },
    {
      "type": "Feature",
      "geometry": {
        "type": "Point",
        "coordinates": [
          68.53333,
          27.88333
        ]
      },
      "properties": {
        "name": "Garhi Yasin"
      }
    },
    {
      "type": "Feature",
      "geometry": {
        "type": "Point",
        "coordinates": [
          -112.13333,
          41.68333
        ]
      },
      "properties": {
        "name": "Garland"
      }
    },
    {
      "type": "Feature",
      "geometry": {
        "type": "Point",
        "coordinates": [
          11.91667,
          12.91667
        ]
      },
      "properties": {
        "name": "Geidam"
      }
    },
    {
      "type": "Feature",
      "geometry": {
        "type": "Point",
        "coordinates": [
          136.88333,
          35.53333
        ]
      },
      "properties": {
        "name": "Gifu"
      }
    },
    {
      "type": "Feature",
      "geometry": {
        "type": "Point",
        "coordinates": [
          9.91667,
          9.6
        ]
      },
      "properties": {
        "name": "Git-Git"
      }
    },
    {
      "type": "Feature",
      "geometry": {
        "type": "Point",
        "coordinates": [
          107.7,
          -7.25
        ]
      },
      "properties": {
        "name": "Glanggang"
      }
    },
    {
      "type": "Feature",
      "geometry": {
        "type": "Point",
        "coordinates": [
          37.61667,
          57.35
        ]
      },
      "properties": {
        "name": "Glasatovo"
      }
    },
    {
      "type": "Feature",
      "geometry": {
        "type": "Point",
        "coordinates": [
          16.63333,
          52.86667
        ]
      },
      "properties": {
        "name": "Grzempach"
      }
    },
    {
      "type": "Feature",
      "geometry": {
        "type": "Point",
        "coordinates": [
          -58.61667,
          -33
        ]
      },
      "properties": {
        "name": "Gualeguaych\u00fa"
      }
    },
    {
      "type": "Feature",
      "geometry": {
        "type": "Point",
        "coordinates": [
          13.98333,
          9.91667
        ]
      },
      "properties": {
        "name": "Guidder"
      }
    },
    {
      "type": "Feature",
      "geometry": {
        "type": "Point",
        "coordinates": [
          24.7,
          42.9
        ]
      },
      "properties": {
        "name": "Gumoschnik"
      }
    },
    {
      "type": "Feature",
      "geometry": {
        "type": "Point",
        "coordinates": [
          127.5,
          35
        ]
      },
      "properties": {
        "name": "Gyokukei"
      }
    },
    {
      "type": "Feature",
      "geometry": {
        "type": "Point",
        "coordinates": [
          3.73333,
          50.31667
        ]
      },
      "properties": {
        "name": "Hainaut"
      }
    },
    {
      "type": "Feature",
      "geometry": {
        "type": "Point",
        "coordinates": [
          16.23333,
          57.81667
        ]
      },
      "properties": {
        "name": "Hallingeberg"
      }
    },
    {
      "type": "Feature",
      "geometry": {
        "type": "Point",
        "coordinates": [
          75.78333,
          28.38333
        ]
      },
      "properties": {
        "name": "Haripura"
      }
    },
    {
      "type": "Feature",
      "geometry": {
        "type": "Point",
        "coordinates": [
          136.70033,
          35.2945
        ]
      },
      "properties": {
        "name": "Hashima"
      }
    },
    {
      "type": "Feature",
      "geometry": {
        "type": "Point",
        "coordinates": [
          13.78333,
          55.46667
        ]
      },
      "properties": {
        "name": "Hedeskoga"
      }
    },
    {
      "type": "Feature",
      "geometry": {
        "type": "Point",
        "coordinates": [
          35.66667,
          27.33333
        ]
      },
      "properties": {
        "name": "Hedjaz"
      }
    },
    {
      "type": "Feature",
      "geometry": {
        "type": "Point",
        "coordinates": [
          -110.18333,
          34.9
        ]
      },
      "properties": {
        "name": "Holbrook"
      }
    },
    {
      "type": "Feature",
      "geometry": {
        "type": "Point",
        "coordinates": [
          38.41667,
          9.06667
        ]
      },
      "properties": {
        "name": "Holetta"
      }
    },
    {
      "type": "Feature",
      "geometry": {
        "type": "Point",
        "coordinates": [
          22.68333,
          61.18333
        ]
      },
      "properties": {
        "name": "Hvittis"
      }
    },
    {
      "type": "Feature",
      "geometry": {
        "type": "Point",
        "coordinates": [
          35,
          38
        ]
      },
      "properties": {
        "name": "Ibrisim"
      }
    },
    {
      "type": "Feature",
      "geometry": {
        "type": "Point",
        "coordinates": [
          82.93333,
          58.2
        ]
      },
      "properties": {
        "name": "Ichkala"
      }
    },
    {
      "type": "Feature",
      "geometry": {
        "type": "Point",
        "coordinates": [
          -94.4,
          39.08333
        ]
      },
      "properties": {
        "name": "Independence"
      }
    },
    {
      "type": "Feature",
      "geometry": {
        "type": "Point",
        "coordinates": [
          -57.95,
          -31.18333
        ]
      },
      "properties": {
        "name": "Isthilart"
      }
    },
    {
      "type": "Feature",
      "geometry": {
        "type": "Point",
        "coordinates": [
          32.43333,
          -8.41667
        ]
      },
      "properties": {
        "name": "Ivuna"
      }
    },
    {
      "type": "Feature",
      "geometry": {
        "type": "Point",
        "coordinates": [
          21.9,
          -32.5
        ]
      },
      "properties": {
        "name": "Jackalsfontein"
      }
    },
    {
      "type": "Feature",
      "geometry": {
        "type": "Point",
        "coordinates": [
          68.41667,
          26.75
        ]
      },
      "properties": {
        "name": "Jajh deh Kot Lalu"
      }
    },
    {
      "type": "Feature",
      "geometry": {
        "type": "Point",
        "coordinates": [
          -104.9,
          40.35
        ]
      },
      "properties": {
        "name": "Johnstown"
      }
    },
    {
      "type": "Feature",
      "geometry": {
        "type": "Point",
        "coordinates": [
          30.83333,
          49.86667
        ]
      },
      "properties": {
        "name": "Kagarlyk"
      }
    },
    {
      "type": "Feature",
      "geometry": {
        "type": "Point",
        "coordinates": [
          53.25,
          55.43333
        ]
      },
      "properties": {
        "name": "Kainsaz"
      }
    },
    {
      "type": "Feature",
      "geometry": {
        "type": "Point",
        "coordinates": [
          81.46667,
          26.03333
        ]
      },
      "properties": {
        "name": "Kamalpur"
      }
    },
    {
      "type": "Feature",
      "geometry": {
        "type": "Point",
        "coordinates": [
          139.95667,
          36.04167
        ]
      },
      "properties": {
        "name": "Kamiomi"
      }
    },
    {
      "type": "Feature",
      "geometry": {
        "type": "Point",
        "coordinates": [
          75.8,
          14.18333
        ]
      },
      "properties": {
        "name": "Kamsagar"
      }
    },
    {
      "type": "Feature",
      "geometry": {
        "type": "Point",
        "coordinates": [
          115.5,
          -7
        ]
      },
      "properties": {
        "name": "Kangean"
      }
    },
    {
      "type": "Feature",
      "geometry": {
        "type": "Point",
        "coordinates": [
          33.63333,
          4.7
        ]
      },
      "properties": {
        "name": "Kapoeta"
      }
    },
    {
      "type": "Feature",
      "geometry": {
        "type": "Point",
        "coordinates": [
          73.36667,
          42.45
        ]
      },
      "properties": {
        "name": "Kaptal-Aryk"
      }
    },
    {
      "type": "Feature",
      "geometry": {
        "type": "Point",
        "coordinates": [
          7.15,
          12.9
        ]
      },
      "properties": {
        "name": "Karewar"
      }
    },
    {
      "type": "Feature",
      "geometry": {
        "type": "Point",
        "coordinates": [
          67.16667,
          27.8
        ]
      },
      "properties": {
        "name": "Karkh"
      }
    },
    {
      "type": "Feature",
      "geometry": {
        "type": "Point",
        "coordinates": [
          139.91667,
          -35.08333
        ]
      },
      "properties": {
        "name": "Karoonda"
      }
    },
    {
      "type": "Feature",
      "geometry": {
        "type": "Point",
        "coordinates": [
          136.76667,
          35.36667
        ]
      },
      "properties": {
        "name": "Kasamatsu"
      }
    },
    {
      "type": "Feature",
      "geometry": {
        "type": "Point",
        "coordinates": [
          112.01667,
          -7.75
        ]
      },
      "properties": {
        "name": "Kediri"
      }
    },
    {
      "type": "Feature",
      "geometry": {
        "type": "Point",
        "coordinates": [
          -96,
          29.45
        ]
      },
      "properties": {
        "name": "Kendleton"
      }
    },
    {
      "type": "Feature",
      "geometry": {
        "type": "Point",
        "coordinates": [
          83.11667,
          25.55
        ]
      },
      "properties": {
        "name": "Khanpur"
      }
    },
    {
      "type": "Feature",
      "geometry": {
        "type": "Point",
        "coordinates": [
          75.33333,
          56.75
        ]
      },
      "properties": {
        "name": "Khmelevka"
      }
    },
    {
      "type": "Feature",
      "geometry": {
        "type": "Point",
        "coordinates": [
          81.53333,
          25.1
        ]
      },
      "properties": {
        "name": "Khohar"
      }
    },
    {
      "type": "Feature",
      "geometry": {
        "type": "Point",
        "coordinates": [
          36,
          16
        ]
      },
      "properties": {
        "name": "Khor Temiki"
      }
    },
    {
      "type": "Feature",
      "geometry": {
        "type": "Point",
        "coordinates": [
          138.38333,
          36.85
        ]
      },
      "properties": {
        "name": "Kijima (1906)"
      }
    },
    {
      "type": "Feature",
      "geometry": {
        "type": "Point",
        "coordinates": [
          -89.6,
          43.58333
        ]
      },
      "properties": {
        "name": "Kilbourn"
      }
    },
    {
      "type": "Feature",
      "geometry": {
        "type": "Point",
        "coordinates": [
          -95.95,
          30.75
        ]
      },
      "properties": {
        "name": "Kirbyville"
      }
    },
    {
      "type": "Feature",
      "geometry": {
        "type": "Point",
        "coordinates": [
          22.30833,
          48.16667
        ]
      },
      "properties": {
        "name": "Kisvars\u00e1ny"
      }
    },
    {
      "type": "Feature",
      "geometry": {
        "type": "Point",
        "coordinates": [
          139.75,
          35.73333
        ]
      },
      "properties": {
        "name": "Komagome"
      }
    },
    {
      "type": "Feature",
      "geometry": {
        "type": "Point",
        "coordinates": [
          26.16667,
          42.51667
        ]
      },
      "properties": {
        "name": "Konovo"
      }
    },
    {
      "type": "Feature",
      "geometry": {
        "type": "Point",
        "coordinates": [
          56.08333,
          54.33333
        ]
      },
      "properties": {
        "name": "Krasnyi Klyuch"
      }
    },
    {
      "type": "Feature",
      "geometry": {
        "type": "Point",
        "coordinates": [
          77,
          56.8
        ]
      },
      "properties": {
        "name": "Krutikha"
      }
    },
    {
      "type": "Feature",
      "geometry": {
        "type": "Point",
        "coordinates": [
          30.76667,
          47.83333
        ]
      },
      "properties": {
        "name": "Krymka"
      }
    },
    {
      "type": "Feature",
      "geometry": {
        "type": "Point",
        "coordinates": [
          31.7,
          51.15
        ]
      },
      "properties": {
        "name": "Kukschin"
      }
    },
    {
      "type": "Feature",
      "geometry": {
        "type": "Point",
        "coordinates": [
          45,
          41.11667
        ]
      },
      "properties": {
        "name": "Kulp"
      }
    },
    {
      "type": "Feature",
      "geometry": {
        "type": "Point",
        "coordinates": [
          61.36667,
          55.78333
        ]
      },
      "properties": {
        "name": "Kunashak"
      }
    },
    {
      "type": "Feature",
      "geometry": {
        "type": "Point",
        "coordinates": [
          138.38333,
          37.05
        ]
      },
      "properties": {
        "name": "Kushiike"
      }
    },
    {
      "type": "Feature",
      "geometry": {
        "type": "Point",
        "coordinates": [
          76.03333,
          10.83333
        ]
      },
      "properties": {
        "name": "Kuttippuram"
      }
    },
    {
      "type": "Feature",
      "geometry": {
        "type": "Point",
        "coordinates": [
          75.33333,
          55.2
        ]
      },
      "properties": {
        "name": "Kuznetzovo"
      }
    },
    {
      "type": "Feature",
      "geometry": {
        "type": "Point",
        "coordinates": [
          -61.53333,
          -37.33333
        ]
      },
      "properties": {
        "name": "La Colina"
      }
    },
    {
      "type": "Feature",
      "geometry": {
        "type": "Point",
        "coordinates": [
          76.03333,
          21.86667
        ]
      },
      "properties": {
        "name": "Lakangaon"
      }
    },
    {
      "type": "Feature",
      "geometry": {
        "type": "Point",
        "coordinates": [
          16.73333,
          58.85
        ]
      },
      "properties": {
        "name": "L\u00e5nghalsen"
      }
    },
    {
      "type": "Feature",
      "geometry": {
        "type": "Point",
        "coordinates": [
          16.23333,
          47.75
        ]
      },
      "properties": {
        "name": "Lanzenkirchen"
      }
    },
    {
      "type": "Feature",
      "geometry": {
        "type": "Point",
        "coordinates": [
          51.56667,
          52.45
        ]
      },
      "properties": {
        "name": "Lavrentievka"
      }
    },
    {
      "type": "Feature",
      "geometry": {
        "type": "Point",
        "coordinates": [
          -99.33333,
          35.88333
        ]
      },
      "properties": {
        "name": "Leedey"
      }
    },
    {
      "type": "Feature",
      "geometry": {
        "type": "Point",
        "coordinates": [
          28.36667,
          -25.66667
        ]
      },
      "properties": {
        "name": "Leeuwfontein"
      }
    },
    {
      "type": "Feature",
      "geometry": {
        "type": "Point",
        "coordinates": [
          -87.5,
          34.58333
        ]
      },
      "properties": {
        "name": "Leighton"
      }
    },
    {
      "type": "Feature",
      "geometry": {
        "type": "Point",
        "coordinates": [
          15.86667,
          56.65
        ]
      },
      "properties": {
        "name": "Lillaverke"
      }
    },
    {
      "type": "Feature",
      "geometry": {
        "type": "Point",
        "coordinates": [
          19.91667,
          52
        ]
      },
      "properties": {
        "name": "\u0141owicz"
      }
    },
    {
      "type": "Feature",
      "geometry": {
        "type": "Point",
        "coordinates": [
          75.15,
          24.95
        ]
      },
      "properties": {
        "name": "Lua"
      }
    },
    {
      "type": "Feature",
      "geometry": {
        "type": "Point",
        "coordinates": [
          97,
          19
        ]
      },
      "properties": {
        "name": "Mabwe-Khoywa"
      }
    },
    {
      "type": "Feature",
      "geometry": {
        "type": "Point",
        "coordinates": [
          31.95,
          -28.83333
        ]
      },
      "properties": {
        "name": "Macibini"
      }
    },
    {
      "type": "Feature",
      "geometry": {
        "type": "Point",
        "coordinates": [
          86.36667,
          25.91667
        ]
      },
      "properties": {
        "name": "Madhipura"
      }
    },
    {
      "type": "Feature",
      "geometry": {
        "type": "Point",
        "coordinates": [
          111.53333,
          -7.75
        ]
      },
      "properties": {
        "name": "Madiun"
      }
    },
    {
      "type": "Feature",
      "geometry": {
        "type": "Point",
        "coordinates": [
          -49.93333,
          -26.16667
        ]
      },
      "properties": {
        "name": "Mafra"
      }
    },
    {
      "type": "Feature",
      "geometry": {
        "type": "Point",
        "coordinates": [
          -104,
          32.21667
        ]
      },
      "properties": {
        "name": "Malaga"
      }
    },
    {
      "type": "Feature",
      "geometry": {
        "type": "Point",
        "coordinates": [
          33.51667,
          -3.13333
        ]
      },
      "properties": {
        "name": "Malampaka"
      }
    },
    {
      "type": "Feature",
      "geometry": {
        "type": "Point",
        "coordinates": [
          -63.23333,
          -28.93333
        ]
      },
      "properties": {
        "name": "Malotas"
      }
    },
    {
      "type": "Feature",
      "geometry": {
        "type": "Point",
        "coordinates": [
          26.76667,
          -29.45
        ]
      },
      "properties": {
        "name": "Malvern"
      }
    },
    {
      "type": "Feature",
      "geometry": {
        "type": "Point",
        "coordinates": [
          62.08333,
          45.21667
        ]
      },
      "properties": {
        "name": "Mamra Springs"
      }
    },
    {
      "type": "Feature",
      "geometry": {
        "type": "Point",
        "coordinates": [
          31.6,
          -17.65
        ]
      },
      "properties": {
        "name": "Mangwendi"
      }
    },
    {
      "type": "Feature",
      "geometry": {
        "type": "Point",
        "coordinates": [
          72.08333,
          34.23333
        ]
      },
      "properties": {
        "name": "Mardan"
      }
    },
    {
      "type": "Feature",
      "geometry": {
        "type": "Point",
        "coordinates": [
          29.25,
          4.66667
        ]
      },
      "properties": {
        "name": "Maridi"
      }
    },
    {
      "type": "Feature",
      "geometry": {
        "type": "Point",
        "coordinates": [
          30.5,
          61.5
        ]
      },
      "properties": {
        "name": "Marjalahti"
      }
    },
    {
      "type": "Feature",
      "geometry": {
        "type": "Point",
        "coordinates": [
          30,
          -1.21667
        ]
      },
      "properties": {
        "name": "Maziba"
      }
    },
    {
      "type": "Feature",
      "geometry": {
        "type": "Point",
        "coordinates": [
          106.88333,
          -6.23333
        ]
      },
      "properties": {
        "name": "Meester-Cornelis"
      }
    },
    {
      "type": "Feature",
      "geometry": {
        "type": "Point",
        "coordinates": [
          7.21817,
          46.81867
        ]
      },
      "properties": {
        "name": "Menziswyl"
      }
    },
    {
      "type": "Feature",
      "geometry": {
        "type": "Point",
        "coordinates": [
          37.66667,
          0
        ]
      },
      "properties": {
        "name": "Meru"
      }
    },
    {
      "type": "Feature",
      "geometry": {
        "type": "Point",
        "coordinates": [
          81.98333,
          25.48333
        ]
      },
      "properties": {
        "name": "Merua"
      }
    },
    {
      "type": "Feature",
      "geometry": {
        "type": "Point",
        "coordinates": [
          3.25,
          45.76667
        ]
      },
      "properties": {
        "name": "Mezel"
      }
    },
    {
      "type": "Feature",
      "geometry": {
        "type": "Point",
        "coordinates": [
          17.53333,
          46.23333
        ]
      },
      "properties": {
        "name": "Mike"
      }
    },
    {
      "type": "Feature",
      "geometry": {
        "type": "Point",
        "coordinates": [
          -92.05,
          35.4
        ]
      },
      "properties": {
        "name": "Miller (Arkansas)"
      }
    },
    {
      "type": "Feature",
      "geometry": {
        "type": "Point",
        "coordinates": [
          16.6,
          47.7
        ]
      },
      "properties": {
        "name": "Minnichhof"
      }
    },
    {
      "type": "Feature",
      "geometry": {
        "type": "Point",
        "coordinates": [
          83.25,
          25.68333
        ]
      },
      "properties": {
        "name": "Mirzapur"
      }
    },
    {
      "type": "Feature",
      "geometry": {
        "type": "Point",
        "coordinates": [
          -101.1,
          38.5
        ]
      },
      "properties": {
        "name": "Modoc (1905)"
      }
    },
    {
      "type": "Feature",
      "geometry": {
        "type": "Point",
        "coordinates": [
          174.4,
          -39.63333
        ]
      },
      "properties": {
        "name": "Mokoia"
      }
    },
    {
      "type": "Feature",
      "geometry": {
        "type": "Point",
        "coordinates": [
          -8.25,
          38.01667
        ]
      },
      "properties": {
        "name": "Monte das Fortes"
      }
    },
    {
      "type": "Feature",
      "geometry": {
        "type": "Point",
        "coordinates": [
          1.9625,
          43.39056
        ]
      },
      "properties": {
        "name": "Montferr\u00e9"
      }
    },
    {
      "type": "Feature",
      "geometry": {
        "type": "Point",
        "coordinates": [
          27.35,
          -15.96667
        ]
      },
      "properties": {
        "name": "Monze"
      }
    },
    {
      "type": "Feature",
      "geometry": {
        "type": "Point",
        "coordinates": [
          -79.38333,
          35.41667
        ]
      },
      "properties": {
        "name": "Moore County"
      }
    },
    {
      "type": "Feature",
      "geometry": {
        "type": "Point",
        "coordinates": [
          145.6,
          -40.975
        ]
      },
      "properties": {
        "name": "Moorleah"
      }
    },
    {
      "type": "Feature",
      "geometry": {
        "type": "Point",
        "coordinates": [
          141.7,
          -29.8
        ]
      },
      "properties": {
        "name": "Mount Browne"
      }
    },
    {
      "type": "Feature",
      "geometry": {
        "type": "Point",
        "coordinates": [
          33.5,
          -11.5
        ]
      },
      "properties": {
        "name": "Mtola"
      }
    },
    {
      "type": "Feature",
      "geometry": {
        "type": "Point",
        "coordinates": [
          90.21667,
          24.5
        ]
      },
      "properties": {
        "name": "Muraid"
      }
    },
    {
      "type": "Feature",
      "geometry": {
        "type": "Point",
        "coordinates": [
          -88.1,
          36.6
        ]
      },
      "properties": {
        "name": "Murray"
      }
    },
    {
      "type": "Feature",
      "geometry": {
        "type": "Point",
        "coordinates": [
          140.06167,
          38.12167
        ]
      },
      "properties": {
        "name": "Nagai"
      }
    },
    {
      "type": "Feature",
      "geometry": {
        "type": "Point",
        "coordinates": [
          30.35,
          31.31667
        ]
      },
      "properties": {
        "name": "Nakhla"
      }
    },
    {
      "type": "Feature",
      "geometry": {
        "type": "Point",
        "coordinates": [
          100.08333,
          13.73333
        ]
      },
      "properties": {
        "name": "Nakhon Pathom"
      }
    },
    {
      "type": "Feature",
      "geometry": {
        "type": "Point",
        "coordinates": [
          103.5,
          35.66667
        ]
      },
      "properties": {
        "name": "Nan Yang Pao"
      }
    },
    {
      "type": "Feature",
      "geometry": {
        "type": "Point",
        "coordinates": [
          77,
          19.25
        ]
      },
      "properties": {
        "name": "Naoki"
      }
    },
    {
      "type": "Feature",
      "geometry": {
        "type": "Point",
        "coordinates": [
          150.68889,
          -34.05
        ]
      },
      "properties": {
        "name": "Narellan"
      }
    },
    {
      "type": "Feature",
      "geometry": {
        "type": "Point",
        "coordinates": [
          165.9,
          -21.73333
        ]
      },
      "properties": {
        "name": "Nassirah"
      }
    },
    {
      "type": "Feature",
      "geometry": {
        "type": "Point",
        "coordinates": [
          78.63333,
          52.45
        ]
      },
      "properties": {
        "name": "Nikolaevka"
      }
    },
    {
      "type": "Feature",
      "geometry": {
        "type": "Point",
        "coordinates": [
          30.7,
          -28.56667
        ]
      },
      "properties": {
        "name": "N'Kandhla"
      }
    },
    {
      "type": "Feature",
      "geometry": {
        "type": "Point",
        "coordinates": [
          -92.26667,
          36.21667
        ]
      },
      "properties": {
        "name": "Norfork"
      }
    },
    {
      "type": "Feature",
      "geometry": {
        "type": "Point",
        "coordinates": [
          -99.86667,
          39.68333
        ]
      },
      "properties": {
        "name": "Norton County"
      }
    },
    {
      "type": "Feature",
      "geometry": {
        "type": "Point",
        "coordinates": [
          22,
          56
        ]
      },
      "properties": {
        "name": "Novy-Projekt"
      }
    },
    {
      "type": "Feature",
      "geometry": {
        "type": "Point",
        "coordinates": [
          102.46667,
          42.91667
        ]
      },
      "properties": {
        "name": "Noyan-Bogdo"
      }
    },
    {
      "type": "Feature",
      "geometry": {
        "type": "Point",
        "coordinates": [
          141.86667,
          43.33333
        ]
      },
      "properties": {
        "name": "Numakai"
      }
    },
    {
      "type": "Feature",
      "geometry": {
        "type": "Point",
        "coordinates": [
          94.91667,
          21.20833
        ]
      },
      "properties": {
        "name": "Nyaung"
      }
    },
    {
      "type": "Feature",
      "geometry": {
        "type": "Point",
        "coordinates": [
          22.025,
          47.55
        ]
      },
      "properties": {
        "name": "Nyir\u00e1brany"
      }
    },
    {
      "type": "Feature",
      "geometry": {
        "type": "Point",
        "coordinates": [
          8.05,
          52.28333
        ]
      },
      "properties": {
        "name": "Oesede"
      }
    },
    {
      "type": "Feature",
      "geometry": {
        "type": "Point",
        "coordinates": [
          -5.4,
          38.18333
        ]
      },
      "properties": {
        "name": "Ojuelos Altos"
      }
    },
    {
      "type": "Feature",
      "geometry": {
        "type": "Point",
        "coordinates": [
          135.2,
          35.08333
        ]
      },
      "properties": {
        "name": "Okano"
      }
    },
    {
      "type": "Feature",
      "geometry": {
        "type": "Point",
        "coordinates": [
          8.16667,
          52.95
        ]
      },
      "properties": {
        "name": "Oldenburg (1930)"
      }
    },
    {
      "type": "Feature",
      "geometry": {
        "type": "Point",
        "coordinates": [
          -7.06667,
          38.71667
        ]
      },
      "properties": {
        "name": "Olivenza"
      }
    },
    {
      "type": "Feature",
      "geometry": {
        "type": "Point",
        "coordinates": [
          -2.1,
          39.56667
        ]
      },
      "properties": {
        "name": "Olmedilla de Alarc\u00f3n"
      }
    },
    {
      "type": "Feature",
      "geometry": {
        "type": "Point",
        "coordinates": [
          9.4,
          58.88333
        ]
      },
      "properties": {
        "name": "Oter\u00f8y"
      }
    },
    {
      "type": "Feature",
      "geometry": {
        "type": "Point",
        "coordinates": [
          25,
          55.66667
        ]
      },
      "properties": {
        "name": "Padvarninkai"
      }
    },
    {
      "type": "Feature",
      "geometry": {
        "type": "Point",
        "coordinates": [
          120.45583,
          17.74333
        ]
      },
      "properties": {
        "name": "Paitan"
      }
    },
    {
      "type": "Feature",
      "geometry": {
        "type": "Point",
        "coordinates": [
          -89.71667,
          32.31667
        ]
      },
      "properties": {
        "name": "Palahatchie"
      }
    },
    {
      "type": "Feature",
      "geometry": {
        "type": "Point",
        "coordinates": [
          118.61667,
          43.48333
        ]
      },
      "properties": {
        "name": "Palinshih"
      }
    },
    {
      "type": "Feature",
      "geometry": {
        "type": "Point",
        "coordinates": [
          -91.5,
          39.8
        ]
      },
      "properties": {
        "name": "Palmyra"
      }
    },
    {
      "type": "Feature",
      "geometry": {
        "type": "Point",
        "coordinates": [
          -157.78333,
          21.3
        ]
      },
      "properties": {
        "name": "Palolo Valley"
      }
    },
    {
      "type": "Feature",
      "geometry": {
        "type": "Point",
        "coordinates": [
          124.28333,
          8.06667
        ]
      },
      "properties": {
        "name": "Pantar"
      }
    },
    {
      "type": "Feature",
      "geometry": {
        "type": "Point",
        "coordinates": [
          -90.5,
          36.06667
        ]
      },
      "properties": {
        "name": "Paragould"
      }
    },
    {
      "type": "Feature",
      "geometry": {
        "type": "Point",
        "coordinates": [
          85.4,
          26.2
        ]
      },
      "properties": {
        "name": "Parsa"
      }
    },
    {
      "type": "Feature",
      "geometry": {
        "type": "Point",
        "coordinates": [
          -103.4,
          36.21667
        ]
      },
      "properties": {
        "name": "Pasamonte"
      }
    },
    {
      "type": "Feature",
      "geometry": {
        "type": "Point",
        "coordinates": [
          -48.56667,
          -19.53333
        ]
      },
      "properties": {
        "name": "Patrimonio"
      }
    },
    {
      "type": "Feature",
      "geometry": {
        "type": "Point",
        "coordinates": [
          14.96667,
          38.13333
        ]
      },
      "properties": {
        "name": "Patti"
      }
    },
    {
      "type": "Feature",
      "geometry": {
        "type": "Point",
        "coordinates": [
          91.18333,
          23.15
        ]
      },
      "properties": {
        "name": "Patwar"
      }
    },
    {
      "type": "Feature",
      "geometry": {
        "type": "Point",
        "coordinates": [
          77.03333,
          52.3
        ]
      },
      "properties": {
        "name": "Pavlodar (stone)"
      }
    },
    {
      "type": "Feature",
      "geometry": {
        "type": "Point",
        "coordinates": [
          -103.11667,
          30.125
        ]
      },
      "properties": {
        "name": "Pe\u00f1a Blanca Spring"
      }
    },
    {
      "type": "Feature",
      "geometry": {
        "type": "Point",
        "coordinates": [
          91,
          23.325
        ]
      },
      "properties": {
        "name": "Perpeti"
      }
    },
    {
      "type": "Feature",
      "geometry": {
        "type": "Point",
        "coordinates": [
          39.43333,
          56.63333
        ]
      },
      "properties": {
        "name": "Pervomaisky"
      }
    },
    {
      "type": "Feature",
      "geometry": {
        "type": "Point",
        "coordinates": [
          66.08333,
          55.5
        ]
      },
      "properties": {
        "name": "Pesyanoe"
      }
    },
    {
      "type": "Feature",
      "geometry": {
        "type": "Point",
        "coordinates": [
          -99.25,
          40
        ]
      },
      "properties": {
        "name": "Phillips County (stone)"
      }
    },
    {
      "type": "Feature",
      "geometry": {
        "type": "Point",
        "coordinates": [
          105.48333,
          12
        ]
      },
      "properties": {
        "name": "Phum Sambo"
      }
    },
    {
      "type": "Feature",
      "geometry": {
        "type": "Point",
        "coordinates": [
          108.1,
          15.71667
        ]
      },
      "properties": {
        "name": "Phuoc-Binh"
      }
    },
    {
      "type": "Feature",
      "geometry": {
        "type": "Point",
        "coordinates": [
          -83.51667,
          31.95
        ]
      },
      "properties": {
        "name": "Pitts"
      }
    },
    {
      "type": "Feature",
      "geometry": {
        "type": "Point",
        "coordinates": [
          -96.11667,
          30.7
        ]
      },
      "properties": {
        "name": "Plantersville"
      }
    },
    {
      "type": "Feature",
      "geometry": {
        "type": "Point",
        "coordinates": [
          14.015,
          66.34833
        ]
      },
      "properties": {
        "name": "Pollen"
      }
    },
    {
      "type": "Feature",
      "geometry": {
        "type": "Point",
        "coordinates": [
          -4.31944,
          53.03639
        ]
      },
      "properties": {
        "name": "Pontlyfni"
      }
    },
    {
      "type": "Feature",
      "geometry": {
        "type": "Point",
        "coordinates": [
          118.5,
          31.41667
        ]
      },
      "properties": {
        "name": "Po-wang Chen"
      }
    },
    {
      "type": "Feature",
      "geometry": {
        "type": "Point",
        "coordinates": [
          13.94083,
          48.3025
        ]
      },
      "properties": {
        "name": "Prambachkirchen"
      }
    },
    {
      "type": "Feature",
      "geometry": {
        "type": "Point",
        "coordinates": [
          -53.05,
          -29.03333
        ]
      },
      "properties": {
        "name": "Putinga"
      }
    },
    {
      "type": "Feature",
      "geometry": {
        "type": "Point",
        "coordinates": [
          28.7,
          -30.11667
        ]
      },
      "properties": {
        "name": "Queen's Mercy"
      }
    },
    {
      "type": "Feature",
      "geometry": {
        "type": "Point",
        "coordinates": [
          82.9,
          26.45
        ]
      },
      "properties": {
        "name": "Ramnagar"
      }
    },
    {
      "type": "Feature",
      "geometry": {
        "type": "Point",
        "coordinates": [
          87.76667,
          24.16667
        ]
      },
      "properties": {
        "name": "Rampurhat"
      }
    },
    {
      "type": "Feature",
      "geometry": {
        "type": "Point",
        "coordinates": [
          87.08333,
          23.98333
        ]
      },
      "properties": {
        "name": "Ranchapur"
      }
    },
    {
      "type": "Feature",
      "geometry": {
        "type": "Point",
        "coordinates": [
          72.01667,
          25.38333
        ]
      },
      "properties": {
        "name": "Rangala"
      }
    },
    {
      "type": "Feature",
      "geometry": {
        "type": "Point",
        "coordinates": [
          115.7,
          38.2
        ]
      },
      "properties": {
        "name": "Raoyang"
      }
    },
    {
      "type": "Feature",
      "geometry": {
        "type": "Point",
        "coordinates": [
          -5.33333,
          42.475
        ]
      },
      "properties": {
        "name": "Reliegos"
      }
    },
    {
      "type": "Feature",
      "geometry": {
        "type": "Point",
        "coordinates": [
          111.36667,
          -6.73333
        ]
      },
      "properties": {
        "name": "Rembang"
      }
    },
    {
      "type": "Feature",
      "geometry": {
        "type": "Point",
        "coordinates": [
          -65.28333,
          -32.75
        ]
      },
      "properties": {
        "name": "Renca"
      }
    },
    {
      "type": "Feature",
      "geometry": {
        "type": "Point",
        "coordinates": [
          116.13333,
          38.66667
        ]
      },
      "properties": {
        "name": "Renqiu"
      }
    },
    {
      "type": "Feature",
      "geometry": {
        "type": "Point",
        "coordinates": [
          45.66667,
          48.6
        ]
      },
      "properties": {
        "name": "Repeev Khutor"
      }
    },
    {
      "type": "Feature",
      "geometry": {
        "type": "Point",
        "coordinates": [
          76.66667,
          28.2
        ]
      },
      "properties": {
        "name": "Rewari"
      }
    },
    {
      "type": "Feature",
      "geometry": {
        "type": "Point",
        "coordinates": [
          -83.03333,
          35.03333
        ]
      },
      "properties": {
        "name": "Rich Mountain"
      }
    },
    {
      "type": "Feature",
      "geometry": {
        "type": "Point",
        "coordinates": [
          -66.15,
          -44.11667
        ]
      },
      "properties": {
        "name": "Uzcudun"
      }
    },
    {
      "type": "Feature",
      "geometry": {
        "type": "Point",
        "coordinates": [
          -102.31667,
          46.88333
        ]
      },
      "properties": {
        "name": "Richardton"
      }
    },
    {
      "type": "Feature",
      "geometry": {
        "type": "Point",
        "coordinates": [
          -49.8,
          -26.1
        ]
      },
      "properties": {
        "name": "Rio Negro"
      }
    },
    {
      "type": "Feature",
      "geometry": {
        "type": "Point",
        "coordinates": [
          -83.95,
          44.51667
        ]
      },
      "properties": {
        "name": "Rose City"
      }
    },
    {
      "type": "Feature",
      "geometry": {
        "type": "Point",
        "coordinates": [
          36.53333,
          0.26667
        ]
      },
      "properties": {
        "name": "Rumuruti"
      }
    },
    {
      "type": "Feature",
      "geometry": {
        "type": "Point",
        "coordinates": [
          38.76667,
          -10.26667
        ]
      },
      "properties": {
        "name": "Rupota"
      }
    },
    {
      "type": "Feature",
      "geometry": {
        "type": "Point",
        "coordinates": [
          34.5,
          51.13333
        ]
      },
      "properties": {
        "name": "Ryechki"
      }
    },
    {
      "type": "Feature",
      "geometry": {
        "type": "Point",
        "coordinates": [
          1.38333,
          43.73333
        ]
      },
      "properties": {
        "name": "Saint-Sauveur"
      }
    },
    {
      "type": "Feature",
      "geometry": {
        "type": "Point",
        "coordinates": [
          136.3,
          35.66667
        ]
      },
      "properties": {
        "name": "Sakauchi"
      }
    },
    {
      "type": "Feature",
      "geometry": {
        "type": "Point",
        "coordinates": [
          74.86667,
          25.66667
        ]
      },
      "properties": {
        "name": "Samelia"
      }
    },
    {
      "type": "Feature",
      "geometry": {
        "type": "Point",
        "coordinates": [
          -99.33333,
          24.16667
        ]
      },
      "properties": {
        "name": "Santa Cruz"
      }
    },
    {
      "type": "Feature",
      "geometry": {
        "type": "Point",
        "coordinates": [
          -61.7,
          -33.9
        ]
      },
      "properties": {
        "name": "Santa Isabel"
      }
    },
    {
      "type": "Feature",
      "geometry": {
        "type": "Point",
        "coordinates": [
          46.55,
          52.55
        ]
      },
      "properties": {
        "name": "Saratov"
      }
    },
    {
      "type": "Feature",
      "geometry": {
        "type": "Point",
        "coordinates": [
          17.56667,
          49.23333
        ]
      },
      "properties": {
        "name": "Sazovice"
      }
    },
    {
      "type": "Feature",
      "geometry": {
        "type": "Point",
        "coordinates": [
          27.13333,
          38.3
        ]
      },
      "properties": {
        "name": "Sedik\u00f6y"
      }
    },
    {
      "type": "Feature",
      "geometry": {
        "type": "Point",
        "coordinates": [
          107.33333,
          -7.23333
        ]
      },
      "properties": {
        "name": "Selakopi"
      }
    },
    {
      "type": "Feature",
      "geometry": {
        "type": "Point",
        "coordinates": [
          4.98333,
          22.83333
        ]
      },
      "properties": {
        "name": "Seldebourak"
      }
    },
    {
      "type": "Feature",
      "geometry": {
        "type": "Point",
        "coordinates": [
          79,
          22.25
        ]
      },
      "properties": {
        "name": "Semarkona"
      }
    },
    {
      "type": "Feature",
      "geometry": {
        "type": "Point",
        "coordinates": [
          -36.76667,
          -8.38333
        ]
      },
      "properties": {
        "name": "Serra de Mag\u00e9"
      }
    },
    {
      "type": "Feature",
      "geometry": {
        "type": "Point",
        "coordinates": [
          -44.21667,
          -19.46667
        ]
      },
      "properties": {
        "name": "Sete Lagoas"
      }
    },
    {
      "type": "Feature",
      "geometry": {
        "type": "Point",
        "coordinates": [
          -76.7,
          37.83333
        ]
      },
      "properties": {
        "name": "Sharps"
      }
    },
    {
      "type": "Feature",
      "geometry": {
        "type": "Point",
        "coordinates": [
          -80.16667,
          44.05
        ]
      },
      "properties": {
        "name": "Shelburne"
      }
    },
    {
      "type": "Feature",
      "geometry": {
        "type": "Point",
        "coordinates": [
          87.5775,
          25.85
        ]
      },
      "properties": {
        "name": "Shikarpur"
      }
    },
    {
      "type": "Feature",
      "geometry": {
        "type": "Point",
        "coordinates": [
          74.83333,
          33.71667
        ]
      },
      "properties": {
        "name": "Shupiyan"
      }
    },
    {
      "type": "Feature",
      "geometry": {
        "type": "Point",
        "coordinates": [
          134.65333,
          46.16
        ]
      },
      "properties": {
        "name": "Sikhote-Alin"
      }
    },
    {
      "type": "Feature",
      "geometry": {
        "type": "Point",
        "coordinates": [
          27.26667,
          44.11667
        ]
      },
      "properties": {
        "name": "Silistra"
      }
    },
    {
      "type": "Feature",
      "geometry": {
        "type": "Point",
        "coordinates": [
          7.53333,
          49.98333
        ]
      },
      "properties": {
        "name": "Simmern"
      }
    },
    {
      "type": "Feature",
      "geometry": {
        "type": "Point",
        "coordinates": [
          32.48333,
          30.9
        ]
      },
      "properties": {
        "name": "Sinai"
      }
    },
    {
      "type": "Feature",
      "geometry": {
        "type": "Point",
        "coordinates": [
          69.55,
          26.21667
        ]
      },
      "properties": {
        "name": "Sindhri"
      }
    },
    {
      "type": "Feature",
      "geometry": {
        "type": "Point",
        "coordinates": [
          -103.66667,
          42.58333
        ]
      },
      "properties": {
        "name": "Sioux County"
      }
    },
    {
      "type": "Feature",
      "geometry": {
        "type": "Point",
        "coordinates": [
          23.5,
          44.41667
        ]
      },
      "properties": {
        "name": "Sopot"
      }
    },
    {
      "type": "Feature",
      "geometry": {
        "type": "Point",
        "coordinates": [
          33.63333,
          1.7
        ]
      },
      "properties": {
        "name": "Soroti"
      }
    },
    {
      "type": "Feature",
      "geometry": {
        "type": "Point",
        "coordinates": [
          -90.23333,
          38.7
        ]
      },
      "properties": {
        "name": "St. Louis"
      }
    },
    {
      "type": "Feature",
      "geometry": {
        "type": "Point",
        "coordinates": [
          27.41667,
          -32.01667
        ]
      },
      "properties": {
        "name": "St. Mark's"
      }
    },
    {
      "type": "Feature",
      "geometry": {
        "type": "Point",
        "coordinates": [
          -76.38333,
          38.16667
        ]
      },
      "properties": {
        "name": "St. Mary's County"
      }
    },
    {
      "type": "Feature",
      "geometry": {
        "type": "Point",
        "coordinates": [
          27.2,
          61.65
        ]
      },
      "properties": {
        "name": "St. Michel"
      }
    },
    {
      "type": "Feature",
      "geometry": {
        "type": "Point",
        "coordinates": [
          -3.25,
          56.58333
        ]
      },
      "properties": {
        "name": "Strathmore"
      }
    },
    {
      "type": "Feature",
      "geometry": {
        "type": "Point",
        "coordinates": [
          -90.66667,
          36.48333
        ]
      },
      "properties": {
        "name": "Success"
      }
    },
    {
      "type": "Feature",
      "geometry": {
        "type": "Point",
        "coordinates": [
          84.28333,
          25.93333
        ]
      },
      "properties": {
        "name": "Sultanpur"
      }
    },
    {
      "type": "Feature",
      "geometry": {
        "type": "Point",
        "coordinates": [
          133.16667,
          44.86667
        ]
      },
      "properties": {
        "name": "Sungach"
      }
    },
    {
      "type": "Feature",
      "geometry": {
        "type": "Point",
        "coordinates": [
          136.23333,
          35.43333
        ]
      },
      "properties": {
        "name": "Tan\u00e9"
      }
    },
    {
      "type": "Feature",
      "geometry": {
        "type": "Point",
        "coordinates": [
          10.41667,
          32.95
        ]
      },
      "properties": {
        "name": "Tatahouine"
      }
    },
    {
      "type": "Feature",
      "geometry": {
        "type": "Point",
        "coordinates": [
          44.45,
          35.13333
        ]
      },
      "properties": {
        "name": "Tauk"
      }
    },
    {
      "type": "Feature",
      "geometry": {
        "type": "Point",
        "coordinates": [
          23.5,
          46.71667
        ]
      },
      "properties": {
        "name": "Tauti"
      }
    },
    {
      "type": "Feature",
      "geometry": {
        "type": "Point",
        "coordinates": [
          70.6,
          33.4
        ]
      },
      "properties": {
        "name": "Thal"
      }
    },
    {
      "type": "Feature",
      "geometry": {
        "type": "Point",
        "coordinates": [
          -89.68333,
          38.2
        ]
      },
      "properties": {
        "name": "Tilden"
      }
    },
    {
      "type": "Feature",
      "geometry": {
        "type": "Point",
        "coordinates": [
          79.41667,
          13.63333
        ]
      },
      "properties": {
        "name": "Tirupati"
      }
    },
    {
      "type": "Feature",
      "geometry": {
        "type": "Point",
        "coordinates": [
          106.58333,
          -6.66667
        ]
      },
      "properties": {
        "name": "Tjerebon"
      }
    },
    {
      "type": "Feature",
      "geometry": {
        "type": "Point",
        "coordinates": [
          34.76667,
          47.85
        ]
      },
      "properties": {
        "name": "Tomakovka"
      }
    },
    {
      "type": "Feature",
      "geometry": {
        "type": "Point",
        "coordinates": [
          133.75,
          34.5
        ]
      },
      "properties": {
        "name": "Tomita"
      }
    },
    {
      "type": "Feature",
      "geometry": {
        "type": "Point",
        "coordinates": [
          76.86667,
          24.65
        ]
      },
      "properties": {
        "name": "Tonk"
      }
    },
    {
      "type": "Feature",
      "geometry": {
        "type": "Point",
        "coordinates": [
          -104.16667,
          42.06667
        ]
      },
      "properties": {
        "name": "Torrington"
      }
    },
    {
      "type": "Feature",
      "geometry": {
        "type": "Point",
        "coordinates": [
          9.18333,
          50.91667
        ]
      },
      "properties": {
        "name": "Treysa"
      }
    },
    {
      "type": "Feature",
      "geometry": {
        "type": "Point",
        "coordinates": [
          8.86667,
          58.47333
        ]
      },
      "properties": {
        "name": "Trom\u00f8y"
      }
    },
    {
      "type": "Feature",
      "geometry": {
        "type": "Point",
        "coordinates": [
          -95.1,
          32.16667
        ]
      },
      "properties": {
        "name": "Troup"
      }
    },
    {
      "type": "Feature",
      "geometry": {
        "type": "Point",
        "coordinates": [
          12.3,
          61.3
        ]
      },
      "properties": {
        "name": "Trysil"
      }
    },
    {
      "type": "Feature",
      "geometry": {
        "type": "Point",
        "coordinates": [
          105.66667,
          9.66667
        ]
      },
      "properties": {
        "name": "Tuan Tuc"
      }
    },
    {
      "type": "Feature",
      "geometry": {
        "type": "Point",
        "coordinates": [
          90.75,
          30
        ]
      },
      "properties": {
        "name": "Tulung Dzong"
      }
    },
    {
      "type": "Feature",
      "geometry": {
        "type": "Point",
        "coordinates": [
          65.53333,
          57.16667
        ]
      },
      "properties": {
        "name": "Tyumen"
      }
    },
    {
      "type": "Feature",
      "geometry": {
        "type": "Point",
        "coordinates": [
          -48.78333,
          -19.81667
        ]
      },
      "properties": {
        "name": "Uberaba"
      }
    },
    {
      "type": "Feature",
      "geometry": {
        "type": "Point",
        "coordinates": [
          8.08333,
          7.95
        ]
      },
      "properties": {
        "name": "Udei Station"
      }
    },
    {
      "type": "Feature",
      "geometry": {
        "type": "Point",
        "coordinates": [
          7.21667,
          46.93333
        ]
      },
      "properties": {
        "name": "Ulmiz"
      }
    },
    {
      "type": "Feature",
      "geometry": {
        "type": "Point",
        "coordinates": [
          127,
          34.8
        ]
      },
      "properties": {
        "name": "Unkoku"
      }
    },
    {
      "type": "Feature",
      "geometry": {
        "type": "Point",
        "coordinates": [
          133.28333,
          34.48333
        ]
      },
      "properties": {
        "name": "Urasaki"
      }
    },
    {
      "type": "Feature",
      "geometry": {
        "type": "Point",
        "coordinates": [
          7.55,
          47.11667
        ]
      },
      "properties": {
        "name": "Utzenstorf"
      }
    },
    {
      "type": "Feature",
      "geometry": {
        "type": "Point",
        "coordinates": [
          79.75,
          11.98333
        ]
      },
      "properties": {
        "name": "Valdavur"
      }
    },
    {
      "type": "Feature",
      "geometry": {
        "type": "Point",
        "coordinates": [
          9.15,
          44.86667
        ]
      },
      "properties": {
        "name": "Valdinizza"
      }
    },
    {
      "type": "Feature",
      "geometry": {
        "type": "Point",
        "coordinates": [
          77.26667,
          56.13333
        ]
      },
      "properties": {
        "name": "Vengerovo"
      }
    },
    {
      "type": "Feature",
      "geometry": {
        "type": "Point",
        "coordinates": [
          45.8,
          57.8
        ]
      },
      "properties": {
        "name": "Vetluga"
      }
    },
    {
      "type": "Feature",
      "geometry": {
        "type": "Point",
        "coordinates": [
          11.4,
          44.85
        ]
      },
      "properties": {
        "name": "Vigarano"
      }
    },
    {
      "type": "Feature",
      "geometry": {
        "type": "Point",
        "coordinates": [
          -56.5,
          -25.83333
        ]
      },
      "properties": {
        "name": "Villarrica"
      }
    },
    {
      "type": "Feature",
      "geometry": {
        "type": "Point",
        "coordinates": [
          87.43333,
          23.1
        ]
      },
      "properties": {
        "name": "Vishnupur"
      }
    },
    {
      "type": "Feature",
      "geometry": {
        "type": "Point",
        "coordinates": [
          70,
          25.45
        ]
      },
      "properties": {
        "name": "Visuni"
      }
    },
    {
      "type": "Feature",
      "geometry": {
        "type": "Point",
        "coordinates": [
          -98.3,
          34.33333
        ]
      },
      "properties": {
        "name": "Walters"
      }
    },
    {
      "type": "Feature",
      "geometry": {
        "type": "Point",
        "coordinates": [
          -122.35,
          45.58333
        ]
      },
      "properties": {
        "name": "Washougal"
      }
    },
    {
      "type": "Feature",
      "geometry": {
        "type": "Point",
        "coordinates": [
          30,
          -26
        ]
      },
      "properties": {
        "name": "Witklip Farm"
      }
    },
    {
      "type": "Feature",
      "geometry": {
        "type": "Point",
        "coordinates": [
          18.91667,
          -28.66667
        ]
      },
      "properties": {
        "name": "Witsand Farm"
      }
    },
    {
      "type": "Feature",
      "geometry": {
        "type": "Point",
        "coordinates": [
          113.33333,
          35.13333
        ]
      },
      "properties": {
        "name": "Wuzhi"
      }
    },
    {
      "type": "Feature",
      "geometry": {
        "type": "Point",
        "coordinates": [
          131.45,
          34.16667
        ]
      },
      "properties": {
        "name": "Yoshiki"
      }
    },
    {
      "type": "Feature",
      "geometry": {
        "type": "Point",
        "coordinates": [
          116.61667,
          28.71667
        ]
      },
      "properties": {
        "name": "Yukan"
      }
    },
    {
      "type": "Feature",
      "geometry": {
        "type": "Point",
        "coordinates": [
          35.36667,
          47.31667
        ]
      },
      "properties": {
        "name": "Yurtuk"
      }
    },
    {
      "type": "Feature",
      "geometry": {
        "type": "Point",
        "coordinates": [
          25,
          55.3
        ]
      },
      "properties": {
        "name": "Zemaitkiemis"
      }
    },
    {
      "type": "Feature",
      "geometry": {
        "type": "Point",
        "coordinates": [
          37.25,
          47.58333
        ]
      },
      "properties": {
        "name": "Zhovtnevyi"
      }
    },
    {
      "type": "Feature",
      "geometry": {
        "type": "Point",
        "coordinates": [
          -101.8,
          33.85
        ]
      },
      "properties": {
        "name": "Abernathy"
      }
    },
    {
      "type": "Feature",
      "geometry": {
        "type": "Point",
        "coordinates": [
          -100.81333,
          39.77667
        ]
      },
      "properties": {
        "name": "Achilles"
      }
    },
    {
      "type": "Feature",
      "geometry": {
        "type": "Point",
        "coordinates": [
          -104.26667,
          33.63333
        ]
      },
      "properties": {
        "name": "Acme"
      }
    },
    {
      "type": "Feature",
      "geometry": {
        "type": "Point",
        "coordinates": [
          -103.76667,
          39.96667
        ]
      },
      "properties": {
        "name": "Adams County"
      }
    },
    {
      "type": "Feature",
      "geometry": {
        "type": "Point",
        "coordinates": [
          142.38333,
          -67.18333
        ]
      },
      "properties": {
        "name": "Adelie Land"
      }
    },
    {
      "type": "Feature",
      "geometry": {
        "type": "Point",
        "coordinates": [
          -102.71667,
          35.15
        ]
      },
      "properties": {
        "name": "Adrian"
      }
    },
    {
      "type": "Feature",
      "geometry": {
        "type": "Point",
        "coordinates": [
          -163.16667,
          64.88333
        ]
      },
      "properties": {
        "name": "Aggie Creek"
      }
    },
    {
      "type": "Feature",
      "geometry": {
        "type": "Point",
        "coordinates": [
          -66.95,
          -28.91667
        ]
      },
      "properties": {
        "name": "Agua Blanca"
      }
    },
    {
      "type": "Feature",
      "geometry": {
        "type": "Point",
        "coordinates": [
          -105.5,
          30.7
        ]
      },
      "properties": {
        "name": "Ahumada"
      }
    },
    {
      "type": "Feature",
      "geometry": {
        "type": "Point",
        "coordinates": [
          -101.5,
          34.2
        ]
      },
      "properties": {
        "name": "Aiken"
      }
    },
    {
      "type": "Feature",
      "geometry": {
        "type": "Point",
        "coordinates": [
          -99.8,
          42.6
        ]
      },
      "properties": {
        "name": "Ainsworth"
      }
    },
    {
      "type": "Feature",
      "geometry": {
        "type": "Point",
        "coordinates": [
          -103.16667,
          40.15
        ]
      },
      "properties": {
        "name": "Akron (1940)"
      }
    },
    {
      "type": "Feature",
      "geometry": {
        "type": "Point",
        "coordinates": [
          -105.93333,
          32.9
        ]
      },
      "properties": {
        "name": "Alamogordo"
      }
    },
    {
      "type": "Feature",
      "geometry": {
        "type": "Point",
        "coordinates": [
          -105.86667,
          37.46667
        ]
      },
      "properties": {
        "name": "Alamosa"
      }
    },
    {
      "type": "Feature",
      "geometry": {
        "type": "Point",
        "coordinates": [
          -104.1,
          41.5
        ]
      },
      "properties": {
        "name": "Albin (pallasite)"
      }
    },
    {
      "type": "Feature",
      "geometry": {
        "type": "Point",
        "coordinates": [
          -104.1,
          41.41667
        ]
      },
      "properties": {
        "name": "Albin (stone)"
      }
    },
    {
      "type": "Feature",
      "geometry": {
        "type": "Point",
        "coordinates": [
          134.11667,
          -23.33333
        ]
      },
      "properties": {
        "name": "Alikatnima"
      }
    },
    {
      "type": "Feature",
      "geometry": {
        "type": "Point",
        "coordinates": [
          -96.7,
          33.1
        ]
      },
      "properties": {
        "name": "Allen"
      }
    },
    {
      "type": "Feature",
      "geometry": {
        "type": "Point",
        "coordinates": [
          -100.11667,
          39.6
        ]
      },
      "properties": {
        "name": "Almelo Township"
      }
    },
    {
      "type": "Feature",
      "geometry": {
        "type": "Point",
        "coordinates": [
          -110.48333,
          40.56667
        ]
      },
      "properties": {
        "name": "Altonah"
      }
    },
    {
      "type": "Feature",
      "geometry": {
        "type": "Point",
        "coordinates": [
          -97.88333,
          35.16667
        ]
      },
      "properties": {
        "name": "Amber"
      }
    },
    {
      "type": "Feature",
      "geometry": {
        "type": "Point",
        "coordinates": [
          -99.2,
          40.8
        ]
      },
      "properties": {
        "name": "Amherst"
      }
    },
    {
      "type": "Feature",
      "geometry": {
        "type": "Point",
        "coordinates": [
          -88.25,
          44.25
        ]
      },
      "properties": {
        "name": "Angelica"
      }
    },
    {
      "type": "Feature",
      "geometry": {
        "type": "Point",
        "coordinates": [
          -104.86667,
          52.33333
        ]
      },
      "properties": {
        "name": "Annaheim"
      }
    },
    {
      "type": "Feature",
      "geometry": {
        "type": "Point",
        "coordinates": [
          -98.05,
          37.08333
        ]
      },
      "properties": {
        "name": "Anthony"
      }
    },
    {
      "type": "Feature",
      "geometry": {
        "type": "Point",
        "coordinates": [
          -105.2,
          39.75
        ]
      },
      "properties": {
        "name": "Apex"
      }
    },
    {
      "type": "Feature",
      "geometry": {
        "type": "Point",
        "coordinates": [
          -102.2,
          38.8
        ]
      },
      "properties": {
        "name": "Arapahoe"
      }
    },
    {
      "type": "Feature",
      "geometry": {
        "type": "Point",
        "coordinates": [
          -99.1,
          41.41667
        ]
      },
      "properties": {
        "name": "Arcadia"
      }
    },
    {
      "type": "Feature",
      "geometry": {
        "type": "Point",
        "coordinates": [
          -97.76667,
          37.26667
        ]
      },
      "properties": {
        "name": "Argonia"
      }
    },
    {
      "type": "Feature",
      "geometry": {
        "type": "Point",
        "coordinates": [
          134.66667,
          -23.33333
        ]
      },
      "properties": {
        "name": "Arltunga"
      }
    },
    {
      "type": "Feature",
      "geometry": {
        "type": "Point",
        "coordinates": [
          -103.25,
          39.3
        ]
      },
      "properties": {
        "name": "Arriba"
      }
    },
    {
      "type": "Feature",
      "geometry": {
        "type": "Point",
        "coordinates": [
          139.91667,
          -29.06667
        ]
      },
      "properties": {
        "name": "Artracoona"
      }
    },
    {
      "type": "Feature",
      "geometry": {
        "type": "Point",
        "coordinates": [
          -112.5,
          35.25
        ]
      },
      "properties": {
        "name": "Ashfork"
      }
    },
    {
      "type": "Feature",
      "geometry": {
        "type": "Point",
        "coordinates": [
          -92.75,
          31.8
        ]
      },
      "properties": {
        "name": "Atlanta"
      }
    },
    {
      "type": "Feature",
      "geometry": {
        "type": "Point",
        "coordinates": [
          -105.05,
          36.33333
        ]
      },
      "properties": {
        "name": "Aurora"
      }
    },
    {
      "type": "Feature",
      "geometry": {
        "type": "Point",
        "coordinates": [
          -96.97167,
          31.66
        ]
      },
      "properties": {
        "name": "Axtell"
      }
    },
    {
      "type": "Feature",
      "geometry": {
        "type": "Point",
        "coordinates": [
          9.98333,
          44.31667
        ]
      },
      "properties": {
        "name": "Bagnone"
      }
    },
    {
      "type": "Feature",
      "geometry": {
        "type": "Point",
        "coordinates": [
          -99.98333,
          31.76667
        ]
      },
      "properties": {
        "name": "Ballinger"
      }
    },
    {
      "type": "Feature",
      "geometry": {
        "type": "Point",
        "coordinates": [
          -69.88333,
          -23.3
        ]
      },
      "properties": {
        "name": "Baquedano"
      }
    },
    {
      "type": "Feature",
      "geometry": {
        "type": "Point",
        "coordinates": [
          -43.93333,
          -21.21667
        ]
      },
      "properties": {
        "name": "Barbacena"
      }
    },
    {
      "type": "Feature",
      "geometry": {
        "type": "Point",
        "coordinates": [
          12.35,
          46.1
        ]
      },
      "properties": {
        "name": "Barcis"
      }
    },
    {
      "type": "Feature",
      "geometry": {
        "type": "Point",
        "coordinates": [
          -97.5,
          30.83333
        ]
      },
      "properties": {
        "name": "Bartlett"
      }
    },
    {
      "type": "Feature",
      "geometry": {
        "type": "Point",
        "coordinates": [
          -101.5,
          34
        ]
      },
      "properties": {
        "name": "Barwise"
      }
    },
    {
      "type": "Feature",
      "geometry": {
        "type": "Point",
        "coordinates": [
          143.55,
          -36.8
        ]
      },
      "properties": {
        "name": "Bealiba"
      }
    },
    {
      "type": "Feature",
      "geometry": {
        "type": "Point",
        "coordinates": [
          -104.2,
          44.5
        ]
      },
      "properties": {
        "name": "Bear Lodge"
      }
    },
    {
      "type": "Feature",
      "geometry": {
        "type": "Point",
        "coordinates": [
          -100.53333,
          36.8
        ]
      },
      "properties": {
        "name": "Beaver"
      }
    },
    {
      "type": "Feature",
      "geometry": {
        "type": "Point",
        "coordinates": [
          -100.21667,
          38.53333
        ]
      },
      "properties": {
        "name": "Beeler"
      }
    },
    {
      "type": "Feature",
      "geometry": {
        "type": "Point",
        "coordinates": [
          -103.65,
          36.21667
        ]
      },
      "properties": {
        "name": "Beenham"
      }
    },
    {
      "type": "Feature",
      "geometry": {
        "type": "Point",
        "coordinates": [
          -97.25,
          37.31667
        ]
      },
      "properties": {
        "name": "Belle Plaine"
      }
    },
    {
      "type": "Feature",
      "geometry": {
        "type": "Point",
        "coordinates": [
          -113,
          49.5
        ]
      },
      "properties": {
        "name": "Belly River"
      }
    },
    {
      "type": "Feature",
      "geometry": {
        "type": "Point",
        "coordinates": [
          117.78333,
          -30.75
        ]
      },
      "properties": {
        "name": "Bencubbin"
      }
    },
    {
      "type": "Feature",
      "geometry": {
        "type": "Point",
        "coordinates": [
          -101.25,
          43.5
        ]
      },
      "properties": {
        "name": "Bennett County"
      }
    },
    {
      "type": "Feature",
      "geometry": {
        "type": "Point",
        "coordinates": [
          -102.41667,
          39.3
        ]
      },
      "properties": {
        "name": "Bethune"
      }
    },
    {
      "type": "Feature",
      "geometry": {
        "type": "Point",
        "coordinates": [
          -93.55,
          37.06667
        ]
      },
      "properties": {
        "name": "Billings"
      }
    },
    {
      "type": "Feature",
      "geometry": {
        "type": "Point",
        "coordinates": [
          149.38333,
          -34.31667
        ]
      },
      "properties": {
        "name": "Binda"
      }
    },
    {
      "type": "Feature",
      "geometry": {
        "type": "Point",
        "coordinates": [
          122.12389,
          -31.4875
        ]
      },
      "properties": {
        "name": "Binneringie"
      }
    },
    {
      "type": "Feature",
      "geometry": {
        "type": "Point",
        "coordinates": [
          -108.5,
          38
        ]
      },
      "properties": {
        "name": "Bishop Canyon"
      }
    },
    {
      "type": "Feature",
      "geometry": {
        "type": "Point",
        "coordinates": [
          -77,
          45.5
        ]
      },
      "properties": {
        "name": "Blithfield"
      }
    },
    {
      "type": "Feature",
      "geometry": {
        "type": "Point",
        "coordinates": [
          -107.96667,
          35.26667
        ]
      },
      "properties": {
        "name": "Bluewater"
      }
    },
    {
      "type": "Feature",
      "geometry": {
        "type": "Point",
        "coordinates": [
          -96.92667,
          29.86306
        ]
      },
      "properties": {
        "name": "Bluff (b)"
      }
    },
    {
      "type": "Feature",
      "geometry": {
        "type": "Point",
        "coordinates": [
          114.2,
          57.85
        ]
      },
      "properties": {
        "name": "Bodaibo"
      }
    },
    {
      "type": "Feature",
      "geometry": {
        "type": "Point",
        "coordinates": [
          -98.8,
          29.8
        ]
      },
      "properties": {
        "name": "Boerne"
      }
    },
    {
      "type": "Feature",
      "geometry": {
        "type": "Point",
        "coordinates": [
          68.8,
          52.5
        ]
      },
      "properties": {
        "name": "Bogoslovka"
      }
    },
    {
      "type": "Feature",
      "geometry": {
        "type": "Point",
        "coordinates": [
          83.36667,
          57.63333
        ]
      },
      "properties": {
        "name": "Bolshaya Korta"
      }
    },
    {
      "type": "Feature",
      "geometry": {
        "type": "Point",
        "coordinates": [
          -81.75,
          26.26667
        ]
      },
      "properties": {
        "name": "Bonita Springs"
      }
    },
    {
      "type": "Feature",
      "geometry": {
        "type": "Point",
        "coordinates": [
          -116.38333,
          33.26667
        ]
      },
      "properties": {
        "name": "Borrego"
      }
    },
    {
      "type": "Feature",
      "geometry": {
        "type": "Point",
        "coordinates": [
          26.4,
          -33
        ]
      },
      "properties": {
        "name": "Bowden"
      }
    },
    {
      "type": "Feature",
      "geometry": {
        "type": "Point",
        "coordinates": [
          135.2,
          -22.61667
        ]
      },
      "properties": {
        "name": "Boxhole"
      }
    },
    {
      "type": "Feature",
      "geometry": {
        "type": "Point",
        "coordinates": [
          -99.46667,
          31.05
        ]
      },
      "properties": {
        "name": "Brady"
      }
    },
    {
      "type": "Feature",
      "geometry": {
        "type": "Point",
        "coordinates": [
          -101.33333,
          39.25
        ]
      },
      "properties": {
        "name": "Brewster"
      }
    },
    {
      "type": "Feature",
      "geometry": {
        "type": "Point",
        "coordinates": [
          -104.31667,
          40.66667
        ]
      },
      "properties": {
        "name": "Briggsdale"
      }
    },
    {
      "type": "Feature",
      "geometry": {
        "type": "Point",
        "coordinates": [
          -101.4,
          34.35
        ]
      },
      "properties": {
        "name": "Briscoe"
      }
    },
    {
      "type": "Feature",
      "geometry": {
        "type": "Point",
        "coordinates": [
          -82.18333,
          36.56667
        ]
      },
      "properties": {
        "name": "Bristol"
      }
    },
    {
      "type": "Feature",
      "geometry": {
        "type": "Point",
        "coordinates": [
          23.55,
          -30.58333
        ]
      },
      "properties": {
        "name": "Britstown"
      }
    },
    {
      "type": "Feature",
      "geometry": {
        "type": "Point",
        "coordinates": [
          -99.7,
          41.43333
        ]
      },
      "properties": {
        "name": "Broken Bow"
      }
    },
    {
      "type": "Feature",
      "geometry": {
        "type": "Point",
        "coordinates": [
          -102.18333,
          33.21667
        ]
      },
      "properties": {
        "name": "Brownfield (1937)"
      }
    },
    {
      "type": "Feature",
      "geometry": {
        "type": "Point",
        "coordinates": [
          -105.35,
          52.26667
        ]
      },
      "properties": {
        "name": "Bruno"
      }
    },
    {
      "type": "Feature",
      "geometry": {
        "type": "Point",
        "coordinates": [
          -99.53333,
          38.23333
        ]
      },
      "properties": {
        "name": "Burdett"
      }
    },
    {
      "type": "Feature",
      "geometry": {
        "type": "Point",
        "coordinates": [
          137.46667,
          66.4
        ]
      },
      "properties": {
        "name": "Burgavli"
      }
    },
    {
      "type": "Feature",
      "geometry": {
        "type": "Point",
        "coordinates": [
          -99.25,
          32.03333
        ]
      },
      "properties": {
        "name": "Burkett"
      }
    },
    {
      "type": "Feature",
      "geometry": {
        "type": "Point",
        "coordinates": [
          20,
          -30
        ]
      },
      "properties": {
        "name": "Bushman Land"
      }
    },
    {
      "type": "Feature",
      "geometry": {
        "type": "Point",
        "coordinates": [
          -103.9,
          41.23333
        ]
      },
      "properties": {
        "name": "Bushnell"
      }
    },
    {
      "type": "Feature",
      "geometry": {
        "type": "Point",
        "coordinates": [
          -59.5,
          -36.4
        ]
      },
      "properties": {
        "name": "Cachari"
      }
    },
    {
      "type": "Feature",
      "geometry": {
        "type": "Point",
        "coordinates": [
          139.75,
          -34.06667
        ]
      },
      "properties": {
        "name": "Cadell"
      }
    },
    {
      "type": "Feature",
      "geometry": {
        "type": "Point",
        "coordinates": [
          -92.15,
          36.08333
        ]
      },
      "properties": {
        "name": "Calico Rock"
      }
    },
    {
      "type": "Feature",
      "geometry": {
        "type": "Point",
        "coordinates": [
          -85.36667,
          37.36667
        ]
      },
      "properties": {
        "name": "Campbellsville"
      }
    },
    {
      "type": "Feature",
      "geometry": {
        "type": "Point",
        "coordinates": [
          -111.5,
          29.66667
        ]
      },
      "properties": {
        "name": "Carbo"
      }
    },
    {
      "type": "Feature",
      "geometry": {
        "type": "Point",
        "coordinates": [
          140.98333,
          -37.98333
        ]
      },
      "properties": {
        "name": "Caroline"
      }
    },
    {
      "type": "Feature",
      "geometry": {
        "type": "Point",
        "coordinates": [
          139.93333,
          -29.23333
        ]
      },
      "properties": {
        "name": "Carraweena"
      }
    },
    {
      "type": "Feature",
      "geometry": {
        "type": "Point",
        "coordinates": [
          141.03333,
          -29.75
        ]
      },
      "properties": {
        "name": "Cartoonkana"
      }
    },
    {
      "type": "Feature",
      "geometry": {
        "type": "Point",
        "coordinates": [
          -86,
          32
        ]
      },
      "properties": {
        "name": "Carver"
      }
    },
    {
      "type": "Feature",
      "geometry": {
        "type": "Point",
        "coordinates": [
          -97.70333,
          35.84778
        ]
      },
      "properties": {
        "name": "Cashion"
      }
    },
    {
      "type": "Feature",
      "geometry": {
        "type": "Point",
        "coordinates": [
          -61.13333,
          -33.1
        ]
      },
      "properties": {
        "name": "Casilda"
      }
    },
    {
      "type": "Feature",
      "geometry": {
        "type": "Point",
        "coordinates": [
          -42.21667,
          -22.46667
        ]
      },
      "properties": {
        "name": "Casimiro de Abreu"
      }
    },
    {
      "type": "Feature",
      "geometry": {
        "type": "Point",
        "coordinates": [
          -98.059192,
          44.221494
        ]
      },
      "properties": {
        "name": "Cavour"
      }
    },
    {
      "type": "Feature",
      "geometry": {
        "type": "Point",
        "coordinates": [
          -98.98333,
          39.7
        ]
      },
      "properties": {
        "name": "Cedar (Kansas)"
      }
    },
    {
      "type": "Feature",
      "geometry": {
        "type": "Point",
        "coordinates": [
          -102.45,
          36.2
        ]
      },
      "properties": {
        "name": "Chamberlin"
      }
    },
    {
      "type": "Feature",
      "geometry": {
        "type": "Point",
        "coordinates": [
          -72.06667,
          48.45
        ]
      },
      "properties": {
        "name": "Chambord"
      }
    },
    {
      "type": "Feature",
      "geometry": {
        "type": "Point",
        "coordinates": [
          -102.28333,
          35.71667
        ]
      },
      "properties": {
        "name": "Channing"
      }
    },
    {
      "type": "Feature",
      "geometry": {
        "type": "Point",
        "coordinates": [
          88,
          53.66667
        ]
      },
      "properties": {
        "name": "Chebankol"
      }
    },
    {
      "type": "Feature",
      "geometry": {
        "type": "Point",
        "coordinates": [
          -103.25,
          29
        ]
      },
      "properties": {
        "name": "Chico Mountains"
      }
    },
    {
      "type": "Feature",
      "geometry": {
        "type": "Point",
        "coordinates": [
          -106.11667,
          28.66667
        ]
      },
      "properties": {
        "name": "Chihuahua City"
      }
    },
    {
      "type": "Feature",
      "geometry": {
        "type": "Point",
        "coordinates": [
          -90.5,
          14.5
        ]
      },
      "properties": {
        "name": "Chinautla"
      }
    },
    {
      "type": "Feature",
      "geometry": {
        "type": "Point",
        "coordinates": [
          94.4,
          51.05833
        ]
      },
      "properties": {
        "name": "Chinga"
      }
    },
    {
      "type": "Feature",
      "geometry": {
        "type": "Point",
        "coordinates": [
          -12.68333,
          20.25
        ]
      },
      "properties": {
        "name": "Chinguetti"
      }
    },
    {
      "type": "Feature",
      "geometry": {
        "type": "Point",
        "coordinates": [
          -100.35,
          37.85
        ]
      },
      "properties": {
        "name": "Cimarron"
      }
    },
    {
      "type": "Feature",
      "geometry": {
        "type": "Point",
        "coordinates": [
          -104.7,
          43.7
        ]
      },
      "properties": {
        "name": "Clareton"
      }
    },
    {
      "type": "Feature",
      "geometry": {
        "type": "Point",
        "coordinates": [
          -84.16667,
          38
        ]
      },
      "properties": {
        "name": "Clark County"
      }
    },
    {
      "type": "Feature",
      "geometry": {
        "type": "Point",
        "coordinates": [
          -97.41667,
          32.31667
        ]
      },