[{
  "_id": {
    "$oid": "656a815c9fbd268c204f0310"
  },
  "name": "Aire-sur-la-Lys",
  "year": 1769,
  "reclat": 50.66667,
  "reclong": 2.33333
},
{
  "_id": {
    "$oid": "656a815c9fbd268c204f0318"
  },
  "name": "Albareto",
  "year": 1766,
  "reclat": 44.65,
  "reclong": 11.01667
},
{
  "_id": {
    "$oid": "656a815c9fbd268c204f034f"
  },
  "name": "Barbotan",
  "year": 1790,
  "reclat": 43.95,
  "reclong": -0.05
},
{
  "_id": {
    "$oid": "656a815c9fbd268c204f0350"
  },
  "name": "Barcelona (stone)",
  "year": 1704,
  "reclat": 41.36667,
  "reclong": 2.16667
},
{
  "_id": {
    "$oid": "656a815c9fbd268c204f0362"
  },
  "name": "Benares (a)",
  "year": 1798,
  "reclat": 25.36667,
  "reclong": 82.91667
},
{
  "_id": {
    "$oid": "656a815c9fbd268c204f037c"
  },
  "name": "Bjelaja Zerkov",
  "year": 1796,
  "reclat": 49.78333,
  "reclong": 30.16667
},
{
  "_id": {
    "$oid": "656a815c9fbd268c204f03b0"
  },
  "name": "Castel Berardenga",
  "year": 1791,
  "reclat": 43.35,
  "reclong": 11.5
},
{
  "_id": {
    "$oid": "656a815c9fbd268c204f03b2"
  },
  "name": "Castrovillari",
  "year": 1583,
  "reclat": 39.8,
  "reclong": 16.2
},
{
  "_id": {
    "$oid": "656a815c9fbd268c204f0413"
  },
  "name": "Eichstädt",
  "year": 1785,
  "reclat": 48.9,
  "reclong": 11.21667
},
{
  "_id": {
    "$oid": "656a815c9fbd268c204f041a"
  },
  "name": "Elbogen",
  "year": 1399,
  "reclat": 50.18333,
  "reclong": 12.73333
},
{
  "_id": {
    "$oid": "656a815c9fbd268c204f041f"
  },
  "name": "Ensisheim",
  "year": 1491,
  "reclat": 47.86667,
  "reclong": 7.35
},
{
  "_id": {
    "$oid": "656a815c9fbd268c204f043c"
  },
  "name": "Fünen",
  "year": 1654,
  "reclat": 55.33333,
  "reclong": 10.33333
},
{
  "_id": {
    "$oid": "656a815c9fbd268c204f0475"
  },
  "name": "Hatford",
  "year": 1628,
  "reclat": 51.65,
  "reclong": -1.51667
},
{
  "_id": {
    "$oid": "656a815c9fbd268c204f0486"
  },
  "name": "Hraschina",
  "year": 1751,
  "reclat": 46.1,
  "reclong": 16.33333
},
{
  "_id": {
    "$oid": "656a815c9fbd268c204f049e"
  },
  "name": "Jalandhar",
  "year": 1621,
  "reclat": 31,
  "reclong": 75
},
{
  "_id": {
    "$oid": "656a815c9fbd268c204f04db"
  },
  "name": "Kharkov",
  "year": 1787,
  "reclat": 50.625,
  "reclong": 35.075
},
{
  "_id": {
    "$oid": "656a815c9fbd268c204f0530"
  },
  "name": "Lucé",
  "year": 1768,
  "reclat": 47.85,
  "reclong": 0.48333
},
{
  "_id": {
    "$oid": "656a815c9fbd268c204f0535"
  },
  "name": "Luponnas",
  "year": 1753,
  "reclat": 46.21667,
  "reclong": 5
},
{
  "_id": {
    "$oid": "656a815c9fbd268c204f055b"
  },
  "name": "Mauerkirchen",
  "year": 1768,
  "reclat": 48.18333,
  "reclong": 13.13333
},
{
  "_id": {
    "$oid": "656a815c9fbd268c204f0577"
  },
  "name": "Minamino",
  "year": 1632,
  "reclat": 35.07833,
  "reclong": 136.93333
},
{
  "_id": {
    "$oid": "656a815c9fbd268c204f0595"
  },
  "name": "Mount Vaisi",
  "year": 1637,
  "reclat": 44.08333,
  "reclong": 6.86667
},
{
  "_id": {
    "$oid": "656a815c9fbd268c204f0598"
  },
  "name": "Mulletiwu",
  "year": 1795,
  "reclat": 9.33333,
  "reclong": 80.83333
},
{
  "_id": {
    "$oid": "656a815c9fbd268c204f05b9"
  },
  "name": "Nicorps",
  "year": 1750,
  "reclat": 49.03333,
  "reclong": -1.43333
},
{
  "_id": {
    "$oid": "656a815c9fbd268c204f05ca"
  },
  "name": "Novy-Ergi",
  "year": 1662,
  "reclat": 58.55,
  "reclong": 31.33333
},
{
  "_id": {
    "$oid": "656a815c9fbd268c204f05d6"
  },
  "name": "Ogi",
  "year": 1741,
  "reclat": 33.28333,
  "reclong": 130.2
},
{
  "_id": {
    "$oid": "656a815c9fbd268c204f05de"
  },
  "name": "Oliva-Gandia",
  "year": 1519,
  "reclat": 39,
  "reclong": -0.03333
},
{
  "_id": {
    "$oid": "656a815c9fbd268c204f05e5"
  },
  "name": "Ortenau",
  "year": 1671,
  "reclat": 48.5,
  "reclong": 8
},
{
  "_id": {
    "$oid": "656a815c9fbd268c204f05f0"
  },
  "name": "Owrucz",
  "year": 1775,
  "reclat": 51.33333,
  "reclong": 28.83333
},
{
  "_id": {
    "$oid": "656a815c9fbd268c204f0617"
  },
  "name": "Pettiswood",
  "year": 1779,
  "reclat": 53.53333,
  "reclong": -7.33333
},
{
  "_id": {
    "$oid": "656a815c9fbd268c204f0626"
  },
  "name": "Ploschkovitz",
  "year": 1723,
  "reclat": 50.53333,
  "reclong": 14.11667
},
{
  "_id": {
    "$oid": "656a815c9fbd268c204f062e"
  },
  "name": "Portugal",
  "year": 1796,
  "reclat": 38.5,
  "reclong": -8
},
{
  "_id": {
    "$oid": "656a815c9fbd268c204f064b"
  },
  "name": "Rasgrad",
  "year": 1740,
  "reclat": 43.5,
  "reclong": 26.53333
},
{
  "_id": {
    "$oid": "656a815c9fbd268c204f065c"
  },
  "name": "Rivolta de Bassi",
  "year": 1490,
  "reclat": 45.48333,
  "reclong": 9.51667
},
{
  "_id": {
    "$oid": "656a815c9fbd268c204f0660"
  },
  "name": "Rodach",
  "year": 1775,
  "reclat": 50.35,
  "reclong": 10.8
},
{
  "_id": {
    "$oid": "656a815c9fbd268c204f0669"
  },
  "name": "Sagan",
  "year": 1636,
  "reclat": 51.53333,
  "reclong": 14.88333
},
{
  "_id": {
    "$oid": "656a815c9fbd268c204f066e"
  },
  "name": "Salles",
  "year": 1798,
  "reclat": 46.05,
  "reclong": 4.63333
},
{
  "_id": {
    "$oid": "656a815c9fbd268c204f067b"
  },
  "name": "Sasagase",
  "year": 1688,
  "reclat": 34.71667,
  "reclong": 137.78333
},
{
  "_id": {
    "$oid": "656a815c9fbd268c204f0680"
  },
  "name": "Schellin",
  "year": 1715,
  "reclat": 53.35,
  "reclong": 15.05
},
{
  "_id": {
    "$oid": "656a815c9fbd268c204f0689"
  },
  "name": "Sena",
  "year": 1773,
  "reclat": 41.71667,
  "reclong": -0.05
},
{
  "_id": {
    "$oid": "656a815c9fbd268c204f069b"
  },
  "name": "Siena",
  "year": 1794,
  "reclat": 43.11667,
  "reclong": 11.6
},
{
  "_id": {
    "$oid": "656a815c9fbd268c204f06c1"
  },
  "name": "Stolzenau",
  "year": 1647,
  "reclat": 52.53333,
  "reclong": 9.05
},
{
  "_id": {
    "$oid": "656a815c9fbd268c204f06c4"
  },
  "name": "Stretchleigh",
  "year": 1623,
  "reclat": 50.38333,
  "reclong": -3.95
},
{
  "_id": {
    "$oid": "656a815c9fbd268c204f06cf"
  },
  "name": "Tabor",
  "year": 1753,
  "reclat": 49.4,
  "reclong": 14.65
},
{
  "_id": {
    "$oid": "656a815c9fbd268c204f0714"
  },
  "name": "Vago",
  "year": 1668,
  "reclat": 45.41667,
  "reclong": 11.13333
},
{
  "_id": {
    "$oid": "656a815c9fbd268c204f0717"
  },
  "name": "Valdinoce",
  "year": 1495,
  "reclat": 44.06667,
  "reclong": 12.1
},
{
  "_id": {
    "$oid": "656a815c9fbd268c204f0737"
  },
  "name": "Wold Cottage",
  "year": 1795,
  "reclat": 54.13667,
  "reclong": -0.41333
},
{
  "_id": {
    "$oid": "656a815d9fbd268c204f16df"
  },
  "name": "Bendegó",
  "year": 1784,
  "reclat": -10.11667,
  "reclong": -39.2
},
{
  "_id": {
    "$oid": "656a815d9fbd268c204f17f9"
  },
  "name": "Campo del Cielo",
  "year": 1575,
  "reclat": -27.46667,
  "reclong": -60.58333
},
{
  "_id": {
    "$oid": "656a815d9fbd268c204f1800"
  },
  "name": "Cape of Good Hope",
  "year": 1793,
  "reclat": -33.5,
  "reclong": 26
},
{
  "_id": {
    "$oid": "656a815e9fbd268c204f46ec"
  },
  "name": "Krasnojarsk",
  "year": 1749,
  "reclat": 54.9,
  "reclong": 91.8
},
{
  "_id": {
    "$oid": "656a815f9fbd268c204f57ad"
  },
  "name": "Longchang",
  "year": 1781,
  "reclat": 29.3,
  "reclong": 105.3
},
{
  "_id": {
    "$oid": "656a815f9fbd268c204f6942"
  },
  "name": "Morito",
  "year": 1600,
  "reclat": 27.05,
  "reclong": -105.43333
},
{
  "_id": {
    "$oid": "656a81609fbd268c204f8038"
  },
  "name": "Prambanan",
  "year": 1797,
  "reclat": -7.56667,
  "reclong": 110.83333
},
{
  "_id": {
    "$oid": "656a81619fbd268c204f95ef"
  },
  "name": "Sierra Blanca",
  "year": 1784,
  "reclat": 27.15,
  "reclong": -104.9
},
{
  "_id": {
    "$oid": "656a81619fbd268c204f9604"
  },
  "name": "Siratik",
  "year": 1716,
  "reclat": 14,
  "reclong": -11
},
{
  "_id": {
    "$oid": "656a81619fbd268c204f965b"
  },
  "name": "Steinbach",
  "year": 1724,
  "reclat": 50.5,
  "reclong": 12.5
},
{
  "_id": {
    "$oid": "656a81619fbd268c204f97ac"
  },
  "name": "Toluca",
  "year": 1776,
  "reclat": 19.56667,
  "reclong": -99.56667
},
{
  "_id": {
    "$oid": "656a81629fbd268c204fb57f"
  },
  "name": "Zacatecas (1792)",
  "year": 1792,
  "reclat": 22.81667,
  "reclong": -102.56667
}]